[{"name_en": "Killemlagh", "co_names": ["Kerry"], "name_ga": "Cill Imleach", "coordinates": [-10.330868492444127, 51.86294966636514]}, {"name_en": "Ballinvoher", "co_names": ["Kerry"], "name_ga": "Baile na Bhóthair", "coordinates": [-10.010637764031344, 52.1577564425725]}, {"name_en": "Ventry", "co_names": ["Kerry"], "name_ga": "Fionntrá", "coordinates": [-10.391379082264887, 52.12719525271706]}, {"name_en": "Kildrum", "co_names": ["Kerry"], "name_ga": "Cill Dromann", "coordinates": [-10.323228146193491, 52.14476504837916]}, {"name_en": "Dingle", "co_names": ["Kerry"], "name_ga": "An Daingean", "coordinates": [-10.278671734977321, 52.15550046784297]}, {"name_en": "Caher", "co_names": ["Kerry"], "name_ga": "An Chathair", "coordinates": [-10.218599022972233, 51.93379499348548]}, {"name_en": "Omey", "co_names": ["Galway"], "name_ga": "Iomaí", "coordinates": [-10.048128486411949, 53.51923557948053]}, {"name_en": "Garfinny", "co_names": ["Kerry"], "name_ga": "An Ghairfeanaigh", "coordinates": [-10.230478999788106, 52.153051342670764]}, {"name_en": "Kilcrohane", "co_names": ["Kerry"], "name_ga": "Cill Chrócháin", "coordinates": [-9.963469475863745, 51.831637999280964]}, {"name_en": "Cloghane", "co_names": ["Kerry"], "name_ga": "An Clochán", "coordinates": [-10.204556331289245, 52.227051059923774]}, {"name_en": "Ballindoon Civil Parish", "co_names": ["Galway"], "name_ga": "Baile an Dúin", "coordinates": [-10.051679657735638, 53.4365364663257]}, {"name_en": "Killinane", "co_names": ["Kerry"], "name_ga": "Cill Lonáin", "coordinates": [-10.115370122235854, 51.98202513930559]}, {"name_en": "Dromod", "co_names": ["Kerry"], "name_ga": "An Dromaid", "coordinates": [-10.055801362451335, 51.89433869131396]}, {"name_en": "Ballyduff", "co_names": ["Kerry"], "name_ga": "An Baile Dubh", "coordinates": [-10.141941109569874, 52.20398479508875]}, {"name_en": null, "co_names": ["Mayo"], "name_ga": null, "coordinates": [-10.10320807977663, 53.70326578740235]}, {"name_en": "Ballynacourty", "co_names": ["Kerry"], "name_ga": "Baile na Cúirte", "coordinates": [-10.071275021481998, 52.16324853271066]}, {"name_en": "Kilcatherine", "co_names": ["Cork"], "name_ga": "Cill Chaitiairn", "coordinates": [-9.924399754666053, 51.70408145745116]}, {"name_en": "Moyrus", "co_names": ["Galway"], "name_ga": "Maíros", "coordinates": [-9.802627689842422, 53.4244450032315]}, {"name_en": "Killaconenagh", "co_names": ["Cork"], "name_ga": "Cill Eacha Naoineach", "coordinates": [-9.884003001578275, 51.65219563503817]}, {"name_en": "Kilcommon", "co_names": ["Mayo"], "name_ga": "Cill Chomáin", "coordinates": [-9.7480152804797, 54.14406184428409]}, {"name_en": "Kilballyowen", "co_names": ["Clare"], "name_ga": "Cill Bhaile Eoghain", "coordinates": [-9.820759469415185, 52.58707252117564]}, {"name_en": "Oughtmama", "co_names": ["Clare"], "name_ga": "Ucht Máma", "coordinates": [-9.059126987893723, 53.10222084143692]}, {"name_en": "Kilcolman", "co_names": ["Kerry"], "name_ga": "Cill Cholmáin", "coordinates": [-9.722253671726016, 52.1426148816833]}, {"name_en": "Kilgarrylander", "co_names": ["Kerry"], "name_ga": "Cill Gharraí an Lóndraigh", "coordinates": [-9.7861449133395, 52.182901728796836]}, {"name_en": "Ardfert", "co_names": ["Kerry"], "name_ga": "Ard Fhearta", "coordinates": [-9.790071370432743, 52.32419979267998]}, {"name_en": "Tuosist", "co_names": ["Kerry"], "name_ga": "Tuath Ó Siosta", "coordinates": [-9.726034010129041, 51.780498568981265]}, {"name_en": "Burrishoole", "co_names": ["Mayo"], "name_ga": "Buiríos Umhaill", "coordinates": [-9.612644422495412, 53.9350473625199]}, {"name_en": "Templenoe", "co_names": ["Kerry"], "name_ga": "An Teampall Nua", "coordinates": [-9.713295454214242, 51.90890667427144]}, {"name_en": "Kilcrohane", "co_names": ["Cork"], "name_ga": "Cill Chrócháin", "coordinates": [-9.697683409946844, 51.59304004558583]}, {"name_en": "Killury", "co_names": ["Kerry"], "name_ga": "Cill Lúirí", "coordinates": [-9.73871395198832, 52.43966325664904]}, {"name_en": "Kilbonane", "co_names": ["Kerry"], "name_ga": "Cill Bheanáin", "coordinates": [-9.652440537188726, 52.10599232077554]}, {"name_en": "Kilfearagh", "co_names": ["Clare"], "name_ga": "Cill Fhiarach", "coordinates": [-9.6132607272424, 52.67404109040947]}, {"name_en": "Skull", "co_names": ["Cork"], "name_ga": "An Scoil", "coordinates": [-9.52934948054107, 51.559911095968644]}, {"name_en": "Kilconly", "co_names": ["Kerry"], "name_ga": "Cill Chonnla", "coordinates": [-9.631732596434478, 52.56373338165047]}, {"name_en": "Molahiffe", "co_names": ["Kerry"], "name_ga": "Maigh Fhlaithimh", "coordinates": [-9.585278584382957, 52.17384944528125]}, {"name_en": null, "co_names": ["Kerry"], "name_ga": "Cill Cháscann", "coordinates": [-9.534532191387507, 51.81045849904327]}, {"name_en": "Aghadoe", "co_names": ["Kerry"], "name_ga": "Achadh Deo", "coordinates": [-9.507489516014356, 52.06621141538955]}, {"name_en": "Kinvarradoorus", "co_names": ["Galway"], "name_ga": "Cinn Mhara", "coordinates": [-8.959743830099047, 53.13568372631664]}, {"name_en": "Killard", "co_names": ["Clare"], "name_ga": "Cill Ard", "coordinates": [-9.539766765955864, 52.72145647852446]}, {"name_en": "Kenmare", "co_names": ["Kerry"], "name_ga": "Ceann Mara", "coordinates": [-9.547943793212267, 51.88847292658801]}, {"name_en": "Kilfeighny", "co_names": ["Kerry"], "name_ga": "Cill Fhiachna", "coordinates": [-9.542506974067699, 52.36970550388149]}, {"name_en": "Durrus", "co_names": ["Cork"], "name_ga": "Dúras", "coordinates": [-9.529391755404408, 51.62926716577788]}, {"name_en": "Doonfeeny", "co_names": ["Mayo"], "name_ga": "Dún Fhíne", "coordinates": [-9.49096335486694, 54.27306826192092]}, {"name_en": "Crossmolina", "co_names": ["Mayo"], "name_ga": "Crois Mhaoilíona", "coordinates": [-9.43439231352199, 54.06996963865017]}, {"name_en": "Rathronan", "co_names": ["Limerick"], "name_ga": "Ráth Rónáin", "coordinates": [-9.221722144669107, 52.46458268527419]}, {"name_en": "Cong Civil Parish", "co_names": ["Galway", "Mayo"], "name_ga": "Conga", "coordinates": [-9.336060980798742, 53.52121269448272]}, {"name_en": "Kilfaughnabeg", "co_names": ["Cork"], "name_ga": "Cill Fachna Bheag", "coordinates": [-9.104033648016221, 51.56749398497874]}, {"name_en": "Kilfian", "co_names": ["Mayo"], "name_ga": "Cill Aodháin", "coordinates": [-9.41947363928551, 54.19880545595292]}, {"name_en": "Inisheer Civil Parish", "co_names": ["Galway"], "name_ga": "Paróiste Inis Oírr", "coordinates": [-9.5280578550495, 53.05709665414012]}, {"name_en": "Kilrush", "co_names": ["Clare"], "name_ga": "Cill Rois", "coordinates": [-9.474577697898841, 52.64653450785212]}, {"name_en": "Ballinchalla", "co_names": ["Mayo"], "name_ga": "Baile an Chalaidh", "coordinates": [-9.380323373616845, 53.59914491039834]}, {"name_en": "Kilshenane", "co_names": ["Kerry"], "name_ga": "Cill Seanáin", "coordinates": [-9.479623353859886, 52.36731843278656]}, {"name_en": "Kilcummin", "co_names": ["Kerry"], "name_ga": "Cill Chuimín", "coordinates": [-9.339926541564646, 52.09148070443032]}, {"name_en": "Clear Island", "co_names": ["Cork"], "name_ga": "Cléire", "coordinates": [-9.49309882557799, 51.4384867015463]}, {"name_en": "Killeentierna", "co_names": ["Kerry"], "name_ga": "Cillín Tiarna", "coordinates": [-9.482275087600147, 52.17182682916258]}, {"name_en": "Kilmurry", "co_names": ["Clare"], "name_ga": "Cill Mhuire Uí Bhreacáin", "coordinates": [-9.36944705883522, 52.803036710682036]}, {"name_en": "Dysert", "co_names": ["Kerry"], "name_ga": "An Díseart", "coordinates": [-9.448622125668825, 52.17465018670661]}, {"name_en": "Castleisland", "co_names": ["Kerry"], "name_ga": "Oileán Ciarraí", "coordinates": [-9.432251459745183, 52.27298814600127]}, {"name_en": "Kilmaclasser", "co_names": ["Mayo"], "name_ga": "Cill Mhic Laisre", "coordinates": [-9.470335840247293, 53.85760766776252]}, {"name_en": "Creagh", "co_names": ["Cork"], "name_ga": "An Chraobhach", "coordinates": [-9.306866415204837, 51.521506498744785]}, {"name_en": "Ballyovey", "co_names": ["Mayo"], "name_ga": "Baile Óbha", "coordinates": [-9.351589712440422, 53.67470914232298]}, {"name_en": "Islandeady", "co_names": ["Mayo"], "name_ga": "Oileán Éadaí", "coordinates": [-9.398230714593804, 53.869830349810385]}, {"name_en": "Kilmacduane", "co_names": ["Clare"], "name_ga": "Cill Mhic an Dubháin", "coordinates": [-9.424334600512738, 52.722060043695286]}, {"name_en": "Addergoole", "co_names": ["Mayo"], "name_ga": "Eadargúil", "coordinates": [-9.360811399016477, 53.985580965107445]}, {"name_en": "Aghadown", "co_names": ["Cork"], "name_ga": "Achadh Dúin", "coordinates": [-9.368883438105723, 51.536742442634086]}, {"name_en": "Kilmacrehy", "co_names": ["Clare"], "name_ga": "Cill Mhic Creiche", "coordinates": [-9.405461035608598, 52.95396388465804]}, {"name_en": "Tullagh", "co_names": ["Cork"], "name_ga": "An Tulach", "coordinates": [-9.356092951867964, 51.48536428254406]}, {"name_en": "Ballincuslane", "co_names": ["Kerry"], "name_ga": "Baile an Chaisleáin", "coordinates": [-9.333159919107974, 52.218740128382976]}, {"name_en": "Killilagh", "co_names": ["Clare"], "name_ga": "Cill Aidhleach", "coordinates": [-9.35264077532477, 53.02587508615733]}, {"name_en": "Caheragh", "co_names": ["Cork"], "name_ga": "Cathrach", "coordinates": [-9.331556934054802, 51.62966731627999]}, {"name_en": "Kilmihil", "co_names": ["Clare"], "name_ga": "Cill Mhichíl", "coordinates": [-9.307203530088344, 52.733155648480725]}, {"name_en": "Kilmurry", "co_names": ["Clare"], "name_ga": "Cill Mhuire", "coordinates": [-9.317741074777523, 52.66223953650719]}, {"name_en": "Aglish", "co_names": ["Mayo"], "name_ga": "An Eaglais", "coordinates": [-9.31190855461876, 53.87690266072979]}, {"name_en": "Kilfergus", "co_names": ["Limerick"], "name_ga": "Cill Fhearghasa", "coordinates": [-9.280886217997745, 52.5518723394488]}, {"name_en": "Abbeystrowry", "co_names": ["Cork"], "name_ga": "Mainistir na Sruthrach", "coordinates": [-9.271721218933306, 51.56517360872194]}, {"name_en": "Brosna", "co_names": ["Kerry"], "name_ga": "Brosnach", "coordinates": [-9.296702407469688, 52.31337036528719]}, {"name_en": "Nantinan", "co_names": ["Limerick"], "name_ga": "Neantanán", "coordinates": [-9.00133949428643, 52.54876417551016]}, {"name_en": "Turlough", "co_names": ["Mayo"], "name_ga": "Turlach", "coordinates": [-9.227642261081595, 53.92844076559424]}, {"name_en": "Clooney", "co_names": ["Clare"], "name_ga": "Cluaine", "coordinates": [-9.242773707463863, 52.91843070298946]}, {"name_en": "Kilcummin", "co_names": ["Mayo"], "name_ga": "Cill Chuimín", "coordinates": [-9.25490779871814, 54.283406701633304]}, {"name_en": "Ballyvourney", "co_names": ["Cork"], "name_ga": "Baile Bhuirne", "coordinates": [-9.19553256444795, 51.93767266998931]}, {"name_en": "Ballysakeery", "co_names": ["Mayo"], "name_ga": "Baile Easa Caoire", "coordinates": [-9.219506284283055, 54.171174398083636]}, {"name_en": "Gleninagh", "co_names": ["Clare"], "name_ga": "Gleann Eidhneach", "coordinates": [-9.240589951537354, 53.13336457474015]}, {"name_en": "Templemurry", "co_names": ["Mayo"], "name_ga": "Teampall Mhuire", "coordinates": [-9.257728020058137, 54.240092263638815]}, {"name_en": "Breaghwy", "co_names": ["Mayo"], "name_ga": "Bréachmhaigh", "coordinates": [-9.238901926005774, 53.84372362738627]}, {"name_en": "Kilmoylan", "co_names": ["Limerick"], "name_ga": "Cill Mhaoláin", "coordinates": [-9.175257773843656, 52.53483921177984]}, {"name_en": "Kilfiddane", "co_names": ["Clare"], "name_ga": "Cill Fheadáin", "coordinates": [-9.208959016596598, 52.66533768282491]}, {"name_en": "Killala", "co_names": ["Mayo"], "name_ga": "Cill Ala", "coordinates": [-9.223905399814118, 54.215126353651]}, {"name_en": "Kilfenora", "co_names": ["Clare"], "name_ga": "Cill Fhionnúrach", "coordinates": [-9.21758287370879, 52.987640933072946]}, {"name_en": "Nohavaldaly", "co_names": ["Kerry"], "name_ga": "Nuachabháil Uí Dhálaigh", "coordinates": [-9.237932067545952, 52.119402934161556]}, {"name_en": "Kilmeen", "co_names": ["Cork"], "name_ga": "Cill Mhín", "coordinates": [-9.129141260642024, 52.19138669529169]}, {"name_en": "Fanlobbus", "co_names": ["Cork"], "name_ga": "Fán Lóbais", "coordinates": [-9.13254548460757, 51.73407892330627]}, {"name_en": "Ardagh", "co_names": ["Mayo"], "name_ga": "Ardach", "coordinates": [-9.225572714857615, 54.12587651350935]}, {"name_en": "Killeany", "co_names": ["Clare"], "name_ga": "Cill Éinne", "coordinates": [-9.23541189409758, 53.042518960494235]}, {"name_en": "Killeedy", "co_names": ["Limerick"], "name_ga": "Cill Íde", "coordinates": [-9.114460767354025, 52.358523354212586]}, {"name_en": "Rathborney", "co_names": ["Clare"], "name_ga": "Ráth Boirne", "coordinates": [-9.186162457209278, 53.07466561191727]}, {"name_en": "Rath", "co_names": ["Clare"], "name_ga": "An Ráth", "coordinates": [-9.126180465970455, 52.92663180724057]}, {"name_en": "Robeen", "co_names": ["Mayo"], "name_ga": "Róibín", "coordinates": [-9.166248146279596, 53.684773372445036]}, {"name_en": "Monagay", "co_names": ["Limerick"], "name_ga": "Móin Achaidh Ghae", "coordinates": [-9.11929230563964, 52.40088769759167]}, {"name_en": "Shrule", "co_names": ["Mayo"], "name_ga": "Sruthair", "coordinates": [-9.14816835187688, 53.50686915584521]}, {"name_en": "Rahoon Civil Parish", "co_names": ["Galway"], "name_ga": "Rathún", "coordinates": [-9.144797569692727, 53.27613948975923]}, {"name_en": "Drinagh", "co_names": ["Cork"], "name_ga": "Draighneach", "coordinates": [-9.14414975670663, 51.65848590960336]}, {"name_en": "Kilnamartery", "co_names": ["Cork"], "name_ga": "Cill na Martra", "coordinates": [-9.108383570772183, 51.89258604336952]}, {"name_en": "Noughaval", "co_names": ["Clare"], "name_ga": "Nuachabháil", "coordinates": [-9.16741597747916, 53.01427157066987]}, {"name_en": "Clonfert", "co_names": ["Cork"], "name_ga": "Cluain Fearta", "coordinates": [-9.053231274502606, 52.25542163607856]}, {"name_en": "Kilmoremoy", "co_names": ["Mayo"], "name_ga": "Cill Mhór Mhuaidhe", "coordinates": [-9.133065910303515, 54.11386745514741]}, {"name_en": "Dunmoylan", "co_names": ["Limerick"], "name_ga": "Dún Maoilín", "coordinates": [-9.136203900394067, 52.52939643971865]}, {"name_en": "Manulla", "co_names": ["Mayo"], "name_ga": "Maigh Nulla", "coordinates": [-9.165259501916594, 53.82925734774015]}, {"name_en": "Kilmacabea", "co_names": ["Cork"], "name_ga": "Cill Macaibí", "coordinates": [-9.143160424795637, 51.607693300004286]}, {"name_en": "Ardagh", "co_names": ["Limerick"], "name_ga": "Ardach", "coordinates": [-9.118959815830005, 52.474554855641095]}, {"name_en": "Ballynahaglish", "co_names": ["Mayo"], "name_ga": "Baile na hEaglaise", "coordinates": [-9.156912496353213, 54.033409430011936]}, {"name_en": "Kildacommoge", "co_names": ["Mayo"], "name_ga": "Cill Dachomóg", "coordinates": [-9.145081503793419, 53.878304576418074]}, {"name_en": "Cargin", "co_names": ["Galway"], "name_ga": "An Carraigín", "coordinates": [-9.141451600021485, 53.442644363357616]}, {"name_en": "Kilmainemore", "co_names": ["Mayo"], "name_ga": "Cill Mheáin Mhór", "coordinates": [-9.10354866775394, 53.58292846886268]}, {"name_en": "Myross", "co_names": ["Cork"], "name_ga": "Míros", "coordinates": [-9.147597345734038, 51.5475503151595]}, {"name_en": "Templemore", "co_names": ["Mayo"], "name_ga": "An Teampall Mór", "coordinates": [-9.12153527091245, 53.91605314179337]}, {"name_en": "Kilcorney", "co_names": ["Clare"], "name_ga": "Cill Choirne", "coordinates": [-9.134894370172802, 53.049626062933896]}, {"name_en": "Kilnamona", "co_names": ["Clare"], "name_ga": "Cill na Móna", "coordinates": [-9.092292201703478, 52.86983073880368]}, {"name_en": "Mayo", "co_names": ["Mayo"], "name_ga": "Maigh Eo", "coordinates": [-9.100891070514699, 53.76489542287322]}, {"name_en": "Balla", "co_names": ["Mayo"], "name_ga": "Balla", "coordinates": [-9.117000947586456, 53.806042695579116]}, {"name_en": "Kilcommon", "co_names": ["Mayo"], "name_ga": "Cill Chomáin", "coordinates": [-9.063698073389844, 53.63660368047618]}, {"name_en": "Carran", "co_names": ["Clare"], "name_ga": "An Carn", "coordinates": [-9.056577361964813, 53.04259703301545]}, {"name_en": "Attymass", "co_names": ["Mayo"], "name_ga": "Áth Tí an Mheasaigh", "coordinates": [-9.084599579525031, 54.04585657556707]}, {"name_en": "Killinaboy", "co_names": ["Clare"], "name_ga": "Cill Iníne Baoith", "coordinates": [-9.059423138841112, 52.985010480585]}, {"name_en": "Kilmichael", "co_names": ["Cork"], "name_ga": "Cill Mhichíl", "coordinates": [-9.028181480970686, 51.81863417028183]}, {"name_en": "Robertstown", "co_names": ["Limerick"], "name_ga": "Baile Riobaird", "coordinates": [-9.082643909712916, 52.612783769010804]}, {"name_en": "Newcastle", "co_names": ["Limerick"], "name_ga": "An Caisleán Nua", "coordinates": [-9.092609030885406, 52.46903717154643]}, {"name_en": "Clondrohid", "co_names": ["Cork"], "name_ga": "Cluain Droichead", "coordinates": [-9.02972775646786, 51.959570380022576]}, {"name_en": "Dysert", "co_names": ["Clare"], "name_ga": "An Díseart", "coordinates": [-9.050160828927938, 52.897648854527425]}, {"name_en": "Abbey", "co_names": ["Clare"], "name_ga": "An Mhainistir", "coordinates": [-9.075612376700727, 53.12058513465085]}, {"name_en": "Kilkilvery", "co_names": ["Galway"], "name_ga": "Cill Chilbhire", "coordinates": [-9.081455210759085, 53.47933431929947]}, {"name_en": "Ross", "co_names": ["Cork"], "name_ga": "Ros", "coordinates": [-9.042433539636836, 51.599618440086324]}, {"name_en": "Annaghdown", "co_names": ["Galway"], "name_ga": "Eanach Dhúin", "coordinates": [-9.010957668603279, 53.39339442507808]}, {"name_en": "Bohola", "co_names": ["Mayo"], "name_ga": "Both Chomhla", "coordinates": [-9.053485116479159, 53.888393320872886]}, {"name_en": "Donaghpatrick", "co_names": ["Galway"], "name_ga": "Domhnach Pádraig", "coordinates": [-9.030373929014582, 53.505064142279565]}, {"name_en": "Claregalway", "co_names": ["Galway"], "name_ga": "Baile Chláir", "coordinates": [-8.950480370765984, 53.336709219664485]}, {"name_en": "Killedan", "co_names": ["Mayo"], "name_ga": "Cill Liadáin", "coordinates": [-9.014680217249698, 53.84712736450174]}, {"name_en": "Drumcliff", "co_names": ["Clare"], "name_ga": "Drom Cléibh", "coordinates": [-9.02526848665694, 52.84209671638685]}, {"name_en": "Meelick", "co_names": ["Mayo"], "name_ga": "Míleac", "coordinates": [-9.013255084614864, 53.932602315395044]}, {"name_en": "Kilgarvan", "co_names": ["Mayo"], "name_ga": "Cill na nGarbhán", "coordinates": [-9.009501095053752, 54.10758877502314]}, {"name_en": "Killasser", "co_names": ["Mayo"], "name_ga": "Cill Lasrach", "coordinates": [-8.975071719248362, 53.99179779924653]}, {"name_en": "Kilcoona", "co_names": ["Galway"], "name_ga": "Cill Chuanna", "coordinates": [-9.032177619102583, 53.44408132314734]}, {"name_en": "Kilmeen", "co_names": ["Cork"], "name_ga": "Cill Mhín", "coordinates": [-8.99728671326865, 51.670445813385584]}, {"name_en": "Crossboyne", "co_names": ["Mayo"], "name_ga": "Crois Bhaoithín", "coordinates": [-8.98532092688233, 53.676602588817104]}, {"name_en": "St. Nicholas", "co_names": ["Galway"], "name_ga": "Naomh Nicholas", "coordinates": [-9.027215479766687, 53.28782281263614]}, {"name_en": "Kilcolman", "co_names": ["Mayo"], "name_ga": "Cill Cholmáin", "coordinates": [-8.977070488873217, 53.75289915135426]}, {"name_en": "Easky", "co_names": ["Sligo"], "name_ga": "Iascaigh", "coordinates": [-8.970719536017441, 54.257796209907845]}, {"name_en": "Ruan", "co_names": ["Clare"], "name_ga": "An Ruán", "coordinates": [-8.985145227163255, 52.94209427599344]}, {"name_en": "Mahoonagh", "co_names": ["Limerick"], "name_ga": "Maigh Thamhnach", "coordinates": [-8.981923467520355, 52.40488185379471]}, {"name_en": "Ballynacourty", "co_names": ["Galway"], "name_ga": "Baile na Cúirte", "coordinates": [-8.942621085177683, 53.23004590048442]}, {"name_en": "Castleventry", "co_names": ["Cork"], "name_ga": "Caisleán na Gaoithe", "coordinates": [-9.005263311229008, 51.63096452714912]}, {"name_en": "Dromtarriff", "co_names": ["Cork"], "name_ga": "Drom Tairbh", "coordinates": [-8.965607299779505, 52.117731598621944]}, {"name_en": "Kinneigh", "co_names": ["Cork"], "name_ga": "Cinn Eich", "coordinates": [-8.96508534126925, 51.768199070708235]}, {"name_en": "Rathbarry", "co_names": ["Cork"], "name_ga": "Ráth na Bharraigh", "coordinates": [-8.960118997663857, 51.570898134460116]}, {"name_en": "Killagholehane", "co_names": ["Limerick"], "name_ga": "Cill Deochain Liatháin", "coordinates": [-8.972136171068863, 52.32824114348026]}, {"name_en": "Killower", "co_names": ["Galway"], "name_ga": "Cill Leabhair", "coordinates": [-8.961369602983522, 53.49933817974977]}, {"name_en": "Kilmacteige", "co_names": ["Sligo"], "name_ga": "Cill Mhic Thaidhg", "coordinates": [-8.892084889156928, 54.05971328495405]}, {"name_en": "Macroom", "co_names": ["Cork"], "name_ga": "Maigh Chromtha", "coordinates": [-8.950027973347842, 51.96093509620226]}, {"name_en": "Templemaley", "co_names": ["Clare"], "name_ga": "Teampall Uí Mháille", "coordinates": [-8.970782616523257, 52.88432214676288]}, {"name_en": "Drumacoo", "co_names": ["Galway"], "name_ga": "Droim Mucú", "coordinates": [-8.921034079423121, 53.194904011826544]}, {"name_en": "Kilconduff", "co_names": ["Mayo"], "name_ga": "Cill Chon Duibh", "coordinates": [-8.931522508703019, 53.922115158638704]}, {"name_en": "Kilcorney", "co_names": ["Cork"], "name_ga": "Cill Coirne", "coordinates": [-8.949106100290848, 52.05279185290088]}, {"name_en": "Killinny", "co_names": ["Galway"], "name_ga": "Cill Eithne", "coordinates": [-8.936001404610984, 53.1018791570955]}, {"name_en": "Knock", "co_names": ["Mayo"], "name_ga": "An Cnoc", "coordinates": [-8.918840628249026, 53.796058337285956]}, {"name_en": "Belclare", "co_names": ["Galway"], "name_ga": "Béal Chláir", "coordinates": [-8.93683893170094, 53.48927256089815]}, {"name_en": "Desertserges", "co_names": ["Cork"], "name_ga": "An Díseart", "coordinates": [-8.880133847888885, 51.706387431788315]}, {"name_en": "Doora", "co_names": ["Clare"], "name_ga": "Dúire", "coordinates": [-8.91448010304232, 52.836647466896444]}, {"name_en": "Kilbennan", "co_names": ["Galway"], "name_ga": "Cill Bheanáin", "coordinates": [-8.916964092664074, 53.56154612844972]}, {"name_en": "Kilnasoolagh", "co_names": ["Clare"], "name_ga": "Cill Átha na Súileach", "coordinates": [-8.921950484823697, 52.76880756138101]}, {"name_en": "Cummer", "co_names": ["Galway"], "name_ga": "Comar", "coordinates": [-8.87097241951666, 53.44929089707425]}, {"name_en": "Kilraghtis", "co_names": ["Clare"], "name_ga": "Cill Reachtais", "coordinates": [-8.92770899031452, 52.892067670115324]}, {"name_en": "Kilmacshalgan", "co_names": ["Sligo"], "name_ga": "Cill Mhac Sealgáin", "coordinates": [-8.88447673361056, 54.19815355504576]}, {"name_en": "Kilcolgan", "co_names": ["Galway"], "name_ga": "Cill Cholgáin", "coordinates": [-8.85885319490495, 53.18761564972087]}, {"name_en": "Inchicronan", "co_names": ["Clare"], "name_ga": "Inse Chrónáin", "coordinates": [-8.85744559704362, 52.94307691070081]}, {"name_en": "Aghamore", "co_names": ["Mayo"], "name_ga": "Achadh Mór", "coordinates": [-8.828398628671094, 53.83167371151314]}, {"name_en": "Kilmeedy", "co_names": ["Limerick"], "name_ga": "Cill Míde", "coordinates": [-8.88390252742034, 52.39797332483743]}, {"name_en": "Kilmurry", "co_names": ["Cork"], "name_ga": "Cill Muire", "coordinates": [-8.884736883854853, 51.838016138736066]}, {"name_en": "Aghinagh", "co_names": ["Cork"], "name_ga": "Achadh Fhíonach", "coordinates": [-8.88198754186555, 51.91608541917584]}, {"name_en": "Kilgarriff", "co_names": ["Cork"], "name_ga": "An Chill Gharbh", "coordinates": [-8.911767998984608, 51.633315712928734]}, {"name_en": "Kilmoylan", "co_names": ["Galway"], "name_ga": "Cill Mhaoláin", "coordinates": [-8.84853647292846, 53.415708066086374]}, {"name_en": "Ardfield", "co_names": ["Cork"], "name_ga": "Ard Ó bhFicheallaigh", "coordinates": [-8.907758008957947, 51.56989441355578]}, {"name_en": "Clonmeen", "co_names": ["Cork"], "name_ga": "Cluain Mín", "coordinates": [-8.869793907967987, 52.09889957577443]}, {"name_en": "Kilmacduagh", "co_names": ["Galway"], "name_ga": "Cill Mhic Dhuach", "coordinates": [-8.872021203444133, 53.066545709456385]}, {"name_en": "Kilbrin", "co_names": ["Cork"], "name_ga": "Cill Bhrain", "coordinates": [-8.851372290100604, 52.21775509095584]}, {"name_en": "Matehy", "co_names": ["Cork"], "name_ga": "Maigh Teichigh", "coordinates": [-8.640401228285704, 51.948949291959636]}, {"name_en": "Monanimy", "co_names": ["Cork"], "name_ga": "Móin Ainmne", "coordinates": [-8.505991401275429, 52.127460509488905]}, {"name_en": "Stradbally", "co_names": ["Galway"], "name_ga": "An tSráidbhaile", "coordinates": [-8.867761887520683, 53.23644392137871]}, {"name_en": "Clooney", "co_names": ["Clare"], "name_ga": "Cluaine", "coordinates": [-8.848765225992878, 52.879754441603815]}, {"name_en": "Ballinadee", "co_names": ["Cork"], "name_ga": "Baile na Daibhche", "coordinates": [-8.676724907037208, 51.72727444718146]}, {"name_en": "Tuam", "co_names": ["Galway"], "name_ga": "Tuaim", "coordinates": [-8.815267025183278, 53.52887749719168]}, {"name_en": "Castlemagner", "co_names": ["Cork"], "name_ga": "Caisleán an Mhaignéaraigh", "coordinates": [-8.824918214221807, 52.166759832055966]}, {"name_en": "Kilmovee", "co_names": ["Mayo"], "name_ga": "Cill Mobhí", "coordinates": [-8.74843560837372, 53.88377916623177]}, {"name_en": "Dunmore", "co_names": ["Galway"], "name_ga": "Dún Mór", "coordinates": [-8.747304478079505, 53.607600575732484]}, {"name_en": "Templeboy", "co_names": ["Sligo"], "name_ga": "Teampall Baoith", "coordinates": [-8.799273421098809, 54.23746278169946]}, {"name_en": "Beagh", "co_names": ["Galway"], "name_ga": "An Bheitheach", "coordinates": [-8.823531909120735, 53.01359987348579]}, {"name_en": "Kilbeagh", "co_names": ["Mayo", "Roscommon"], "name_ga": "Cill Bheitheach", "coordinates": [-8.744422851860909, 53.95169090422536]}, {"name_en": "Ballingarry", "co_names": ["Limerick"], "name_ga": "Baile an Gharraí", "coordinates": [-8.80353398552293, 52.46237659922009]}, {"name_en": "Killoscully", "co_names": ["Tipperary"], "name_ga": "Cill Ó Scolaí", "coordinates": [-8.296002225684786, 52.76107636744788]}, {"name_en": "Ardrahan", "co_names": ["Galway"], "name_ga": "Ard Raithin", "coordinates": [-8.777138040509449, 53.142628426487256]}, {"name_en": "Churchtown", "co_names": ["Cork"], "name_ga": "Baile an Teampaill", "coordinates": [-8.754633420577235, 52.2677960055967]}, {"name_en": "Annagh", "co_names": ["Mayo"], "name_ga": "An tEanach", "coordinates": [-8.772187789234879, 53.730001906641974]}, {"name_en": "Caheravally", "co_names": ["Limerick"], "name_ga": "Cathair an Bhachlaigh", "coordinates": [-8.561660238525675, 52.56588388922169]}, {"name_en": "Kilmaloda", "co_names": ["Cork"], "name_ga": "Cill Molúda", "coordinates": [-8.815686421829872, 51.67632550793313]}, {"name_en": "Athenry", "co_names": ["Galway"], "name_ga": "Baile Átha an Rí", "coordinates": [-8.792806781808988, 53.31327055270504]}, {"name_en": "Kiltartan", "co_names": ["Galway"], "name_ga": "Cill Tartan", "coordinates": [-8.809587960643674, 53.09458156634442]}, {"name_en": "Corcomohide", "co_names": ["Limerick"], "name_ga": "Corca Mhuichead", "coordinates": [-8.794063802326988, 52.41100601551647]}, {"name_en": "Templemartin", "co_names": ["Cork"], "name_ga": "Teampall Mártan", "coordinates": [-8.788425832250747, 51.8026914544484]}, {"name_en": "Shandrum", "co_names": ["Cork"], "name_ga": "Seandrom", "coordinates": [-8.776803473272748, 52.33321372342191]}, {"name_en": "Templequinlan", "co_names": ["Cork"], "name_ga": "Teampall Ó gCaoinleáin", "coordinates": [-8.817950109128825, 51.62801930525966]}, {"name_en": "Kilshannig", "co_names": ["Cork"], "name_ga": "Cill Seanaigh", "coordinates": [-8.747570401869153, 52.078665374197364]}, {"name_en": "Tulla", "co_names": ["Clare"], "name_ga": "An Tulach", "coordinates": [-8.753655460792775, 52.888229946283445]}, {"name_en": "Magourney", "co_names": ["Cork"], "name_ga": "Maigh Guairne", "coordinates": [-8.77687145467352, 51.92048504985559]}, {"name_en": "Ballymodan", "co_names": ["Cork"], "name_ga": "Baile Uí Bhuadáin", "coordinates": [-8.751573030621001, 51.73021257323614]}, {"name_en": "Liscarroll", "co_names": ["Cork"], "name_ga": "Lios Cearúill", "coordinates": [-8.793319399039941, 52.26211687736003]}, {"name_en": "Abbeymahon", "co_names": ["Cork"], "name_ga": "Mainistir Ó mBána", "coordinates": [-8.771000304350887, 51.61497218075226]}, {"name_en": "Aglish", "co_names": ["Cork"], "name_ga": "An Eaglais", "coordinates": [-8.75469488627495, 51.88319752928407]}, {"name_en": "Croom", "co_names": ["Limerick"], "name_ga": "Cromadh", "coordinates": [-8.718086167947229, 52.51685674490552]}, {"name_en": "Inishcarra", "co_names": ["Cork"], "name_ga": "Inis Cara", "coordinates": [-8.689348730763935, 51.92678674479556]}, {"name_en": "Kilfinaghta", "co_names": ["Clare"], "name_ga": "Cill Fhionnachta", "coordinates": [-8.751830333679647, 52.75095469063512]}, {"name_en": "Kilbeacanty", "co_names": ["Galway"], "name_ga": "Cill Bheaganta", "coordinates": [-8.7469660111996, 53.052522007045944]}, {"name_en": "Kilbonane", "co_names": ["Cork"], "name_ga": "Cill Mhathnáin", "coordinates": [-8.74166986943561, 51.8396714950403]}, {"name_en": "Killora", "co_names": ["Galway"], "name_ga": "Cill Ortha", "coordinates": [-8.73285019769115, 53.22779224023102]}, {"name_en": "Kilthomas", "co_names": ["Galway"], "name_ga": "Cill Tómais", "coordinates": [-8.705848316202996, 53.092541009325615]}, {"name_en": "Feakle", "co_names": ["Clare"], "name_ga": "An Fhiacail", "coordinates": [-8.659691585883792, 52.974709682744276]}, {"name_en": "Skreen", "co_names": ["Sligo"], "name_ga": "An Scrín", "coordinates": [-8.721628591136142, 54.22757047104836]}, {"name_en": "Clonlea", "co_names": ["Clare"], "name_ga": "Cluain Lao", "coordinates": [-8.715746273117407, 52.79129711536893]}, {"name_en": "Rathclarin", "co_names": ["Cork"], "name_ga": "Ráth Chláirín", "coordinates": [-8.72019860938948, 51.66340911707377]}, {"name_en": "Bruree", "co_names": ["Limerick"], "name_ga": "Brú Rí", "coordinates": [-8.690527040290325, 52.42360370824442]}, {"name_en": "Killogilleen", "co_names": ["Galway"], "name_ga": "Cill Ó gCillín", "coordinates": [-8.703107139352571, 53.19302880710398]}, {"name_en": "Killoran", "co_names": ["Sligo"], "name_ga": "Cill Luaithreann", "coordinates": [-8.646080004635081, 54.16430297822555]}, {"name_en": "Killinan", "co_names": ["Galway"], "name_ga": "Cill Fhíonáin", "coordinates": [-8.67836864998344, 53.14413138726233]}, {"name_en": "Kilconierin", "co_names": ["Galway"], "name_ga": "Cill Chon Iarainn", "coordinates": [-8.687321600787122, 53.257180980660586]}, {"name_en": "Knockavilly", "co_names": ["Cork"], "name_ga": "Cnoc an Bhile", "coordinates": [-8.67298556293064, 51.816932229583024]}, {"name_en": "Rathgoggan", "co_names": ["Cork"], "name_ga": "Ráth an Ghogánaigh", "coordinates": [-8.688415262824511, 52.347973828644115]}, {"name_en": "Ballyhay", "co_names": ["Cork"], "name_ga": "Bealach Átha", "coordinates": [-8.664594526895666, 52.33246582794144]}, {"name_en": "Kilseily", "co_names": ["Clare"], "name_ga": "Cill tSíle", "coordinates": [-8.654022286777858, 52.78117141888836]}, {"name_en": "Kiltullagh", "co_names": ["Galway"], "name_ga": "Cill Tulach", "coordinates": [-8.626923209819871, 53.27815136026562]}, {"name_en": "Templetogher", "co_names": ["Galway"], "name_ga": "Teampall an Tóchair", "coordinates": [-8.59143224434591, 53.68002080558479]}, {"name_en": "Lickerrig", "co_names": ["Galway"], "name_ga": "An Leac Dhearg", "coordinates": [-8.65004937983125, 53.238531686555326]}, {"name_en": "Dromard", "co_names": ["Sligo"], "name_ga": "An Droim Ard", "coordinates": [-8.657018458185112, 54.21658199392102]}, {"name_en": "Inishannon", "co_names": ["Cork"], "name_ga": "Inis Eonáin", "coordinates": [-8.649787740247419, 51.77006042926187]}, {"name_en": "Mallow", "co_names": ["Cork"], "name_ga": "Mala", "coordinates": [-8.647101168614286, 52.14506352770961]}, {"name_en": "Monasteranenagh", "co_names": ["Limerick"], "name_ga": "Mainistir an Aonaigh", "coordinates": [-8.622756595532469, 52.51814238074575]}, {"name_en": "Mourneabbey", "co_names": ["Cork"], "name_ga": "Mainistir na Móna", "coordinates": [-8.626925123384538, 52.074077309040554]}, {"name_en": "Boyounagh", "co_names": ["Galway"], "name_ga": "Buíbheanach", "coordinates": [-8.569530331595791, 53.62084029551973]}, {"name_en": "Kilchreest", "co_names": ["Galway"], "name_ga": "Cill Chríost", "coordinates": [-8.64674287686269, 53.16310504923325]}, {"name_en": "Caherduggan", "co_names": ["Cork"], "name_ga": "Cathair Dhúgáin", "coordinates": [-8.631632524350398, 52.197461480921895]}, {"name_en": "Kilturra", "co_names": ["Mayo", "Sligo"], "name_ga": "Cill Tura", "coordinates": [-8.613904736673467, 54.02282650034955]}, {"name_en": "Kilcolman", "co_names": ["Roscommon", "Sligo"], "name_ga": "Cill Cholmáin", "coordinates": [-8.550023548740096, 53.93627578345078]}, {"name_en": "Ringrone", "co_names": ["Cork"], "name_ga": "Rinn Róin", "coordinates": [-8.585819633727017, 51.66548626640067]}, {"name_en": "Ahamlish", "co_names": ["Sligo"], "name_ga": "Áth Iomghlaise", "coordinates": [-8.481116361228556, 54.409089382491274]}, {"name_en": "Grenagh", "co_names": ["Cork"], "name_ga": "Greanach", "coordinates": [-8.611081987991515, 52.015066218935075]}, {"name_en": "Killeenadeema", "co_names": ["Galway"], "name_ga": "Cillín a Díoma", "coordinates": [-8.591834231059204, 53.109829062040085]}, {"name_en": "Effin", "co_names": ["Limerick"], "name_ga": "Effinn", "coordinates": [-8.613800526158007, 52.36126935655553]}, {"name_en": "St. Finbar's", "co_names": ["Cork"], "name_ga": "Paróiste Fhionnbharra", "coordinates": [-8.493755480688122, 51.87460421900587]}, {"name_en": "Clonkeen", "co_names": ["Galway"], "name_ga": "Cluain Caoin", "coordinates": [-8.598426554735978, 53.362418062488516]}, {"name_en": "St. Nicholas'", "co_names": ["Limerick"], "name_ga": "Paróiste San Niocláis", "coordinates": [-8.610051603293917, 52.646383851452605]}, {"name_en": "Clenor", "co_names": ["Cork"], "name_ga": "Claonúir", "coordinates": [-8.551864840862294, 52.1816530561407]}, {"name_en": "St. Patrick's", "co_names": ["Clare"], "name_ga": "Cill Chuáin", "coordinates": [-8.610687927390309, 52.70267637679096]}, {"name_en": "Kilkerrin", "co_names": ["Galway"], "name_ga": "Cill Choirín", "coordinates": [-8.548852809762623, 53.55291867801166]}, {"name_en": "Cloonoghil", "co_names": ["Sligo"], "name_ga": "Cluain Eochaille", "coordinates": [-8.597940623550421, 54.06714183110923]}, {"name_en": "Doneraile", "co_names": ["Cork"], "name_ga": "Dún ar Aill", "coordinates": [-8.572536926938064, 52.25311427922178]}, {"name_en": "Kilcar", "co_names": ["Donegal"], "name_ga": "Cill Charthaigh", "coordinates": [-8.566046997256159, 54.66648816192631]}, {"name_en": "Garrycloyne", "co_names": ["Cork"], "name_ga": "Garbhchluain", "coordinates": [-8.574970922420079, 51.94970782001794]}, {"name_en": "Kilshalvy", "co_names": ["Sligo"], "name_ga": "Cill Ó Sealbhaigh", "coordinates": [-8.518313472911023, 54.02873867650362]}, {"name_en": "Killaspugbrone", "co_names": ["Sligo"], "name_ga": "Cill Easpaig Bhróin", "coordinates": [-8.566272296819355, 54.26608765193654]}, {"name_en": "Ballysadare", "co_names": ["Sligo"], "name_ga": "Baile Easa Dara", "coordinates": [-8.524027080762528, 54.18231872841571]}, {"name_en": "Rahan", "co_names": ["Cork"], "name_ga": "Raithean", "coordinates": [-8.570322801734088, 52.1094752226247]}, {"name_en": "Loughrea", "co_names": ["Galway"], "name_ga": "Baile Locha Riach", "coordinates": [-8.555628787677355, 53.20366665699075]}, {"name_en": "Killoscobe", "co_names": ["Galway"], "name_ga": "Cill Ó Scóba", "coordinates": [-8.5573394215491, 53.431868102303746]}, {"name_en": "Kiltenanlea", "co_names": ["Clare"], "name_ga": "Cill tSeanáin Léith", "coordinates": [-8.550139235063185, 52.71277604978396]}, {"name_en": "Inishkenny", "co_names": ["Cork"], "name_ga": "Inis Cionaoith", "coordinates": [-8.54929667850636, 51.85071469366395]}, {"name_en": "Kilfree", "co_names": ["Sligo"], "name_ga": "Cill Fraoigh", "coordinates": [-8.517709803490789, 53.98731641928185]}, {"name_en": "Ballinaboy", "co_names": ["Cork"], "name_ga": "Baile na Baoi", "coordinates": [-8.537807758822819, 51.81484189688577]}, {"name_en": "Ballymacward", "co_names": ["Galway"], "name_ga": "Baile Mhic an Bhaird", "coordinates": [-8.498296456675995, 53.383221198062884]}, {"name_en": "Emlaghfad", "co_names": ["Sligo"], "name_ga": "Imleach Fhada", "coordinates": [-8.531421103595136, 54.097251400398974]}, {"name_en": "Kilmurry", "co_names": ["Limerick"], "name_ga": "Cill Mhuire", "coordinates": [-8.552213296963892, 52.66011146901566]}, {"name_en": "Ringcurran", "co_names": ["Cork"], "name_ga": "Rinn Chorráin", "coordinates": [-8.514805178745494, 51.7160025609712]}, {"name_en": "Ballingaddy", "co_names": ["Limerick"], "name_ga": "Baile an Ghadaí", "coordinates": [-8.550612817329835, 52.35437133276513]}, {"name_en": "Uregare", "co_names": ["Limerick"], "name_ga": "An Úir Ghearr", "coordinates": [-8.542971559627674, 52.44873679250089]}, {"name_en": "Ballymartle", "co_names": ["Cork"], "name_ga": "Baile an Mhoirtéalaigh", "coordinates": [-8.52813975843014, 51.76976885297547]}, {"name_en": "Templecrone", "co_names": ["Donegal"], "name_ga": "Teampall Cróine", "coordinates": [-8.357374710497515, 54.96866926737385]}, {"name_en": "Kilmacowen", "co_names": ["Sligo"], "name_ga": "Cill Mhic Eoghain", "coordinates": [-8.523456904056586, 54.2382891108111]}, {"name_en": "Clontead", "co_names": ["Cork"], "name_ga": "Cluain Téide", "coordinates": [-8.521868055823665, 51.728068769786866]}, {"name_en": "Inishkeel", "co_names": ["Donegal"], "name_ga": "Inis Caoil", "coordinates": [-8.231870774944225, 54.83555700233876]}, {"name_en": "Grange", "co_names": ["Galway"], "name_ga": "An Ghráinseach", "coordinates": [-8.523552610165495, 53.2930763784116]}, {"name_en": "Moynoe", "co_names": ["Clare"], "name_ga": "Maigh nEo", "coordinates": [-8.521502021938295, 52.96466607688357]}, {"name_en": "Ballynakill", "co_names": ["Galway"], "name_ga": "Baile na Cille", "coordinates": [-8.42309683420186, 53.05140185086379]}, {"name_en": "Particles", "co_names": ["Limerick"], "name_ga": "Na Páirteagail", "coordinates": [-8.512842294777796, 52.32550047746527]}, {"name_en": "Dunbulloge", "co_names": ["Cork"], "name_ga": "Dún Bolg", "coordinates": [-8.480842152561529, 52.02516365489295]}, {"name_en": "Kilteskill", "co_names": ["Galway"], "name_ga": "Cill tSeiscill", "coordinates": [-8.52009601357937, 53.14952887182542]}, {"name_en": "Knockainy", "co_names": ["Limerick"], "name_ga": "Cnoc Áine", "coordinates": [-8.489840864837433, 52.47692054950601]}, {"name_en": "Ballynakill", "co_names": ["Galway", "Roscommon"], "name_ga": "Baile na Cille", "coordinates": [-8.455580147340436, 53.59510237215105]}, {"name_en": "Killybegs Upper", "co_names": ["Donegal"], "name_ga": "Na Cealla Beaga Uachtaracha", "coordinates": [-8.46426440313623, 54.66350481707887]}, {"name_en": "Drumrat", "co_names": ["Sligo"], "name_ga": "Droim Raite", "coordinates": [-8.47937748823717, 54.040229479067754]}, {"name_en": "Kilreekil", "co_names": ["Galway"], "name_ga": "Cill Rícill", "coordinates": [-8.472606260430437, 53.23944665328609]}, {"name_en": "Abington", "co_names": ["Limerick"], "name_ga": "Mainistir Uaithne", "coordinates": [-8.394362904513109, 52.65316579332895]}, {"name_en": "Killaan", "co_names": ["Galway"], "name_ga": "Cill Leáin", "coordinates": [-8.480390986772598, 53.301561486397276]}, {"name_en": "St. John's", "co_names": ["Sligo"], "name_ga": "Teampall Eoin", "coordinates": [-8.464044369859103, 54.24834562285889]}, {"name_en": "Killosolan", "co_names": ["Galway"], "name_ga": "Cill Ó Saighleann", "coordinates": [-8.42919628427203, 53.446943104593366]}, {"name_en": "Kilnamanagh", "co_names": ["Roscommon"], "name_ga": "Cill na Manach", "coordinates": [-8.418902908481542, 53.909369771553884]}, {"name_en": "Toomour", "co_names": ["Sligo"], "name_ga": "Tuaim Fhobhair", "coordinates": [-8.433955557554523, 54.044410323375516]}, {"name_en": "Kilcully", "co_names": ["Cork"], "name_ga": "Cill Chúile", "coordinates": [-8.47861433353211, 51.949313295657205]}, {"name_en": "Carrigaline", "co_names": ["Cork"], "name_ga": "Carraig Uí Leighin", "coordinates": [-8.39733836210162, 51.83355868443941]}, {"name_en": "Leitrim", "co_names": ["Galway"], "name_ga": "Liatroim", "coordinates": [-8.476777825977933, 53.1549115617697]}, {"name_en": "St. Anne's, Shandon", "co_names": ["Cork"], "name_ga": "Paróiste San Anna", "coordinates": [-8.46113820487008, 51.91910066395828]}, {"name_en": "Kilmorgan", "co_names": ["Sligo"], "name_ga": "Cill Mhurchon", "coordinates": [-8.456017197082604, 54.112551025125455]}, {"name_en": "Rathcormack", "co_names": ["Cork"], "name_ga": "Ráth Chormaic", "coordinates": [-8.331153129523264, 52.08003991475419]}, {"name_en": "Cullen", "co_names": ["Cork"], "name_ga": "An Cuileann", "coordinates": [-8.471203264763801, 51.77141862788157]}, {"name_en": "Killybegs Lower", "co_names": ["Donegal"], "name_ga": "Na Cealla Beaga Íochtaracha", "coordinates": [-8.352779273672722, 54.754575153824696]}, {"name_en": "Calry", "co_names": ["Sligo"], "name_ga": "Calraí", "coordinates": [-8.402737688871536, 54.27964683585327]}, {"name_en": "Killaraght", "co_names": ["Sligo"], "name_ga": "Cill Athracht", "coordinates": [-8.411400715082797, 53.949374579212616]}, {"name_en": "Kilconnell", "co_names": ["Galway"], "name_ga": "Cill Chonnaill", "coordinates": [-8.417877112280058, 53.34295752537702]}, {"name_en": "Hospital", "co_names": ["Limerick"], "name_ga": "An tOspidéal", "coordinates": [-8.427639472998615, 52.471437870313146]}, {"name_en": "Killanully", "co_names": ["Cork"], "name_ga": "Cill an Eallaigh", "coordinates": [-8.449868627320583, 51.83992121734161]}, {"name_en": "Kilross", "co_names": ["Sligo"], "name_ga": "Cill Ros", "coordinates": [-8.440353967861773, 54.19665647309163]}, {"name_en": "Ballintober", "co_names": ["Roscommon"], "name_ga": "Baile an Tobair", "coordinates": [-8.40008012264304, 53.72459081544414]}, {"name_en": "Kilvellane", "co_names": ["Tipperary"], "name_ga": "Cill Mhealláin", "coordinates": [-8.389865622008413, 52.701854591533994]}, {"name_en": "Baslick", "co_names": ["Roscommon"], "name_ga": "Baislic", "coordinates": [-8.363889200691904, 53.77288112008698]}, {"name_en": "Duniry", "co_names": ["Galway"], "name_ga": "Dún Doighre", "coordinates": [-8.416219632610101, 53.15129699167527]}, {"name_en": "Kilbegnet", "co_names": ["Galway", "Roscommon"], "name_ga": "Cill Bheagnait", "coordinates": [-8.398132384029696, 53.59903716888583]}, {"name_en": "Killoran", "co_names": ["Galway"], "name_ga": "Cill Odhráin", "coordinates": [-8.364478177310819, 53.23807956623863]}, {"name_en": "Killallaghtan", "co_names": ["Galway"], "name_ga": "Cill Alachtáin", "coordinates": [-8.396610987670334, 53.28272020887869]}, {"name_en": "Rossinver", "co_names": ["Donegal", "Leitrim", "Sligo"], "name_ga": "Ros Inbhir", "coordinates": [-8.25309483190204, 54.416339673495564]}, {"name_en": "Ballyfeard", "co_names": ["Cork"], "name_ga": "Baile Feá Aird", "coordinates": [-8.428835796640985, 51.757643020065295]}, {"name_en": "Tynagh", "co_names": ["Galway"], "name_ga": "Tíne", "coordinates": [-8.347688243329555, 53.130869746021766]}, {"name_en": "Kilmacallan", "co_names": ["Sligo"], "name_ga": "Cill Mhic Calláin", "coordinates": [-8.359916366149596, 54.121698669194764]}, {"name_en": "Templeachally", "co_names": ["Tipperary"], "name_ga": "Teampall an Chalaidh", "coordinates": [-8.413880511308562, 52.82087672058194]}, {"name_en": "Kilcorkery", "co_names": ["Roscommon"], "name_ga": "Cill Churcaí", "coordinates": [-8.381364179719274, 53.82523896807364]}, {"name_en": null, "co_names": ["Cork"], "name_ga": null, "coordinates": [-8.425529611402505, 51.976682738966375]}, {"name_en": "Kilmacumsy", "co_names": ["Roscommon"], "name_ga": "Cill Mhic Coimsigh", "coordinates": [-8.265693897644901, 53.87153055192706]}, {"name_en": "Tawnagh", "co_names": ["Sligo"], "name_ga": "An Tamhnach", "coordinates": [-8.410164246615912, 54.1083762650283]}, {"name_en": "Ballingarry", "co_names": ["Limerick"], "name_ga": "Baile an Gharraí", "coordinates": [-8.387996358103308, 52.37924875367499]}, {"name_en": "Ballysumaghan", "co_names": ["Sligo"], "name_ga": "Baile Uí Shomacháin", "coordinates": [-8.394224963830489, 54.178921982784296]}, {"name_en": "Kilmastulla", "co_names": ["Tipperary"], "name_ga": "Cill Mhac Stola", "coordinates": [-8.367130931096648, 52.79594558061027]}, {"name_en": "Ballyhooly", "co_names": ["Cork"], "name_ga": "Baile Átha hÚlla", "coordinates": [-8.405812465949468, 52.138435499353875]}, {"name_en": "Nohavel", "co_names": ["Cork"], "name_ga": "Nuachabháil", "coordinates": [-8.399568773451985, 51.720510263778884]}, {"name_en": "Templemolaga", "co_names": ["Cork"], "name_ga": "Teampall Molaga", "coordinates": [-8.379307235475595, 52.2923972991729]}, {"name_en": "Tracton", "co_names": ["Cork"], "name_ga": "Trácht Fhionn", "coordinates": [-8.365258386234832, 51.7598844959453]}, {"name_en": "Grean", "co_names": ["Limerick"], "name_ga": "Grian", "coordinates": [-8.36253482824533, 52.55656731162624]}, {"name_en": "Aughrim", "co_names": ["Galway"], "name_ga": "Eachroim", "coordinates": [-8.346200516503774, 53.29825764830941]}, {"name_en": "Kilnarath", "co_names": ["Tipperary"], "name_ga": "Cill na Rátha", "coordinates": [-8.336128068103118, 52.72913198115189]}, {"name_en": "Glanworth", "co_names": ["Cork"], "name_ga": "Gleannúir", "coordinates": [-8.33831859793935, 52.20018051785219]}, {"name_en": "Killeroran", "co_names": ["Galway"], "name_ga": "Cill ar Ghualainn", "coordinates": [-8.325864461005564, 53.49292216841947]}, {"name_en": "Aghanagh", "co_names": ["Sligo"], "name_ga": "Eachanach", "coordinates": [-8.351542630763095, 54.039782636106274]}, {"name_en": "Caherlag", "co_names": ["Cork"], "name_ga": "Cathair Laga", "coordinates": [-8.351186201822767, 51.91870131360474]}, {"name_en": "Killasnet", "co_names": ["Leitrim"], "name_ga": "Cill Osnat", "coordinates": [-8.264870634057212, 54.34042187509637]}, {"name_en": "Killathy", "co_names": ["Cork"], "name_ga": "Cill Aichidh", "coordinates": [-8.373172442305762, 52.13050551035941]}, {"name_en": "Tuogh", "co_names": ["Limerick"], "name_ga": "An Tuath", "coordinates": [-8.347901527790935, 52.61420099705871]}, {"name_en": "Kilpatrick", "co_names": ["Cork"], "name_ga": "Cill Phádraig", "coordinates": [-8.352215804067598, 51.7777562606358]}, {"name_en": "Lettermacaward", "co_names": ["Donegal"], "name_ga": "Leitir Mhic an Bhaird", "coordinates": [-8.233961291493387, 54.91056726133328]}, {"name_en": "Estersnow", "co_names": ["Roscommon"], "name_ga": "Díseart Nuan", "coordinates": [-8.283074634053488, 53.91899150452951]}, {"name_en": "Marshalstown", "co_names": ["Cork"], "name_ga": "Baile an Mharascalaigh", "coordinates": [-8.336814418322485, 52.28281215662387]}, {"name_en": "Kilgerrill", "co_names": ["Galway"], "name_ga": "Cill Ghoirill", "coordinates": [-8.32894541688283, 53.352738542632245]}, {"name_en": "Athleague", "co_names": ["Galway", "Roscommon"], "name_ga": "Áth Liag", "coordinates": [-8.268229980443559, 53.564027712416774]}, {"name_en": "Ballylanders", "co_names": ["Limerick"], "name_ga": "Baile an Londraigh", "coordinates": [-8.336860152668583, 52.351040371871164]}, {"name_en": "Galbally", "co_names": ["Limerick"], "name_ga": "An Gallbhaile", "coordinates": [-8.291283140135242, 52.39012723364878]}, {"name_en": "Dunamon", "co_names": ["Roscommon"], "name_ga": "Dún Iomáin", "coordinates": [-8.335890963676599, 53.63504353843711]}, {"name_en": "Kilcolagh", "co_names": ["Roscommon"], "name_ga": "Cill Chomhlach", "coordinates": [-8.317415802349487, 53.879878267201285]}, {"name_en": "Oran", "co_names": ["Roscommon"], "name_ga": "Órán", "coordinates": [-8.332940065064145, 53.67158389751946]}, {"name_en": "Kilshanahan", "co_names": ["Cork"], "name_ga": "Cill Seancháin", "coordinates": [-8.327843495244249, 52.031746877453884]}, {"name_en": "Kilquane", "co_names": ["Cork"], "name_ga": "Cill Chuáin", "coordinates": [-8.330128139894132, 51.97400715906592]}, {"name_en": "Litter", "co_names": ["Cork"], "name_ga": "Leitir", "coordinates": [-8.328361729251608, 52.14152319167325]}, {"name_en": "Killimorbologue", "co_names": ["Galway"], "name_ga": "Cill Íomair Bholga", "coordinates": [-8.28909497093285, 53.16799822940307]}, {"name_en": "Fuerty", "co_names": ["Roscommon"], "name_ga": "Fíorta", "coordinates": [-8.277173565140814, 53.618342106269296]}, {"name_en": "Killadoon", "co_names": ["Sligo"], "name_ga": "Cill Dhuibh Dhúin", "coordinates": [-8.311649150817878, 54.094528804570956]}, {"name_en": "Kilcooley", "co_names": ["Roscommon"], "name_ga": null, "coordinates": [-8.211534677139703, 53.77624923713933]}, {"name_en": "Templebreedy", "co_names": ["Cork"], "name_ga": "Teampall Bríde", "coordinates": [-8.306732985000238, 51.793528397643506]}, {"name_en": "Cloonygormican", "co_names": ["Roscommon"], "name_ga": "Cluain Ó gCormacáin", "coordinates": [-8.290319406360949, 53.708533133257085]}, {"name_en": "Shankill", "co_names": ["Roscommon"], "name_ga": "An tSeanchill", "coordinates": [-8.26051200096185, 53.84063595190727]}, {"name_en": "Carrigtohill", "co_names": ["Cork"], "name_ga": "Carraig Thuathail", "coordinates": [-8.261708744296094, 51.92457714163673]}, {"name_en": "Kilmactranny", "co_names": ["Sligo"], "name_ga": "Cill Mhic Treana", "coordinates": [-8.243800790787386, 54.08468666699982]}, {"name_en": "Oola", "co_names": ["Limerick"], "name_ga": "Úlla", "coordinates": [-8.273359462210294, 52.54046977015895]}, {"name_en": "Taghboy", "co_names": ["Roscommon"], "name_ga": "Teach Baoith", "coordinates": [-8.25348302543467, 53.47301738065498]}, {"name_en": "Clonbeg", "co_names": ["Tipperary"], "name_ga": "Cluain Big", "coordinates": [-8.202742152280498, 52.40732186361015]}, {"name_en": "Clontuskert Civil Parish", "co_names": ["Galway"], "name_ga": "Cluain Tuaisceart", "coordinates": [-8.22899597346612, 53.27753150018737]}, {"name_en": "Kilbeheny", "co_names": ["Limerick"], "name_ga": "Coill Bheithne", "coordinates": [-8.228909294139916, 52.32347466528426]}, {"name_en": "Brigown", "co_names": ["Cork"], "name_ga": "Brí Ghabhann", "coordinates": [-8.228903635102645, 52.259159257255206]}, {"name_en": "Templerobin", "co_names": ["Cork"], "name_ga": "Teampall Roibín", "coordinates": [-8.252863484852783, 51.867185054623036]}, {"name_en": "Shancough", "co_names": ["Sligo"], "name_ga": "Seanchuach", "coordinates": [-8.25825924742102, 54.128405084799525]}, {"name_en": "Gortroe", "co_names": ["Cork"], "name_ga": "An Gort Rua", "coordinates": [-8.253604527367528, 52.035325999798886]}, {"name_en": "Tisrara", "co_names": ["Roscommon"], "name_ga": "Tigh Srathra", "coordinates": [-8.23409900470341, 53.52638057291099]}, {"name_en": null, "co_names": ["Cork"], "name_ga": "Cill Chruimthir", "coordinates": [-8.26843495519191, 52.179758883142824]}, {"name_en": "Castlelyons", "co_names": ["Cork"], "name_ga": "Caisleán Ó Liatháin", "coordinates": [-8.205189504414172, 52.09935107073551]}, {"name_en": "Abington", "co_names": ["Tipperary"], "name_ga": "Mainistir Uaithne", "coordinates": [-8.213123331656442, 52.70138449052425]}, {"name_en": "Templebodan", "co_names": ["Cork"], "name_ga": "Teampall Buadáin", "coordinates": [-8.219652238031316, 52.00413852919061]}, {"name_en": "Kilbryan", "co_names": ["Roscommon"], "name_ga": "Cill Bhraoin", "coordinates": [-8.246474363713455, 53.99860826395368]}, {"name_en": "Mogeesha", "co_names": ["Cork"], "name_ga": "Maugh Aisí", "coordinates": [-8.214249099730992, 51.89796320109038]}, {"name_en": "Dysart", "co_names": ["Roscommon"], "name_ga": "An Díseart", "coordinates": [-8.207809901499594, 53.43791517261306]}, {"name_en": "Killukin", "co_names": ["Roscommon"], "name_ga": "Cill Lúcainn", "coordinates": [-8.20684255088526, 53.74802956830495]}, {"name_en": "Killarga", "co_names": ["Leitrim"], "name_ga": "Cill Fhearga", "coordinates": [-8.15559677688705, 54.224384885977315]}, {"name_en": "Knigh", "co_names": ["Tipperary"], "name_ga": "An Cnaoi", "coordinates": [-8.206860783370638, 52.909668442459584]}, {"name_en": "Killukin", "co_names": ["Roscommon"], "name_ga": "Cill Abhaicín", "coordinates": [-8.159886534648377, 53.926198335108275]}, {"name_en": "Taghmaconnell", "co_names": ["Roscommon"], "name_ga": "Teach Mhic Conaill", "coordinates": [-8.147730075076078, 53.404761785755134]}, {"name_en": "Ardcarn", "co_names": ["Roscommon"], "name_ga": "Ard Carna", "coordinates": [-8.186295294680775, 54.00198419671752]}, {"name_en": "Creagh Civil Parish", "co_names": ["Galway", "Roscommon"], "name_ga": "An Chríoch", "coordinates": [-8.178510358970998, 53.33822407559396]}, {"name_en": "Cloonlogher", "co_names": ["Leitrim"], "name_ga": "Cluain Lothair", "coordinates": [-8.194889625189301, 54.26695536273818]}, {"name_en": "Killummod", "co_names": ["Roscommon"], "name_ga": "Cill Lomad", "coordinates": [-8.162360386383387, 53.908605685803686]}, {"name_en": "Nenagh", "co_names": ["Tipperary"], "name_ga": "An tAonach", "coordinates": [-8.205330159465927, 52.85734274336559]}, {"name_en": "Toem", "co_names": ["Tipperary"], "name_ga": "Tuaim", "coordinates": [-8.147945038272066, 52.61972245981971]}, {"name_en": "Dungourney", "co_names": ["Cork"], "name_ga": "Dún Guairne", "coordinates": [-8.11640228474341, 51.97000772204197]}, {"name_en": "Cloonclare", "co_names": ["Leitrim"], "name_ga": "Cluain Chláir", "coordinates": [-8.06730023413501, 54.30079954041942]}, {"name_en": "Drumhome", "co_names": ["Donegal"], "name_ga": "Droim Thuama", "coordinates": [-8.062087960618586, 54.599610322829946]}, {"name_en": "Britway", "co_names": ["Cork"], "name_ga": "Bréachmhaigh", "coordinates": [-8.179349629797592, 52.04086091903972]}, {"name_en": "Kilronan", "co_names": ["Roscommon"], "name_ga": "Cill Rónáin", "coordinates": [-8.125599403695762, 54.07700437992002]}, {"name_en": "Clonfert", "co_names": ["Galway"], "name_ga": "Cluain Fearta", "coordinates": [-8.08125052147551, 53.23241263678091]}, {"name_en": "Fahy", "co_names": ["Galway"], "name_ga": "An Fhaiche", "coordinates": [-8.16722695862825, 53.18131297328777]}, {"name_en": "Aughrim", "co_names": ["Roscommon"], "name_ga": "Eachroim", "coordinates": [-8.119857814567146, 53.88211759529155]}, {"name_en": "Kilmeane", "co_names": ["Roscommon"], "name_ga": "Cill Mhiáin", "coordinates": [-8.122284231303219, 53.583590885285346]}, {"name_en": "Rahara", "co_names": ["Roscommon"], "name_ga": "Ráth Ara", "coordinates": [-8.13541347957038, 53.5329142929041]}, {"name_en": "Clooncraff", "co_names": ["Roscommon"], "name_ga": "Cluain Creamha", "coordinates": [-8.083470931589344, 53.84902709234111]}, {"name_en": "Tumna", "co_names": ["Roscommon"], "name_ga": "Tuaim Ná", "coordinates": [-8.1238716867399, 53.97788211187222]}, {"name_en": "Cam", "co_names": ["Roscommon"], "name_ga": "Camach", "coordinates": [-8.122774601767265, 53.48068390026432]}, {"name_en": "Mevagh", "co_names": ["Donegal"], "name_ga": "Míobhaigh", "coordinates": [-7.7991184477225355, 55.15885328491964]}, {"name_en": "Inch", "co_names": ["Cork"], "name_ga": "An Inse", "coordinates": [-8.154087846116393, 51.8203043371759]}, {"name_en": "Middleton", "co_names": ["Cork"], "name_ga": "Mainistir na Corann", "coordinates": [-8.151947183175583, 51.90703339456548]}, {"name_en": "Knockmourne", "co_names": ["Cork", "Waterford"], "name_ga": "Cnoc Muirne", "coordinates": [-8.10862514704637, 52.10243022759825]}, {"name_en": "Moore Civil Parish", "co_names": ["Roscommon"], "name_ga": "Mór", "coordinates": [-8.090207253662458, 53.32282353875161]}, {"name_en": "Meelick", "co_names": ["Galway"], "name_ga": "Míleac", "coordinates": [-8.117381664636488, 53.18048520530342]}, {"name_en": "Cloonfinlough", "co_names": ["Roscommon"], "name_ga": "Cluain Fionnlocha", "coordinates": [-8.113172514929538, 53.7386229977717]}, {"name_en": "Aghern", "co_names": ["Cork"], "name_ga": "Áth Cairn", "coordinates": [-8.14897209205034, 52.06375153711487]}, {"name_en": "Kilnaneave", "co_names": ["Tipperary"], "name_ga": "Cill na Naomh", "coordinates": [-8.117993228039593, 52.778400081033375]}, {"name_en": "Ballyoughtera", "co_names": ["Cork"], "name_ga": "An Baile Uachtarach", "coordinates": [-8.083303581558518, 51.903983465233225]}, {"name_en": "Lismore and Mocollop", "co_names": ["Waterford"], "name_ga": "Lios Mór agus Maigh Cholpa", "coordinates": [-7.96382278897281, 52.164376423283905]}, {"name_en": "Kilteevan", "co_names": ["Roscommon"], "name_ga": "Cill Taobháin", "coordinates": [-8.08980279535552, 53.62466965691915]}, {"name_en": "Templederry", "co_names": ["Tipperary"], "name_ga": "Teampall Doire", "coordinates": [-8.091193497492236, 52.74637838426948]}, {"name_en": "Shanrahan", "co_names": ["Tipperary"], "name_ga": "Seanraithin", "coordinates": [-8.054544202857313, 52.28597445899483]}, {"name_en": "Upperchurch", "co_names": ["Tipperary"], "name_ga": "An Teampall Uachtarach", "coordinates": [-8.05440632546822, 52.702556555049554]}, {"name_en": "Ballynoe", "co_names": ["Cork"], "name_ga": "An Baile Nua", "coordinates": [-8.094255870402781, 52.04320384666176]}, {"name_en": "Lissonuffy", "co_names": ["Roscommon"], "name_ga": "Lios Ó nDufaigh", "coordinates": [-8.024820386868608, 53.73494599511739]}, {"name_en": "Ballybacon", "co_names": ["Tipperary"], "name_ga": "Baile Uí Bhéacáin", "coordinates": [-7.890525034039254, 52.26652301129343]}, {"name_en": "Ballintemple", "co_names": ["Cork"], "name_ga": "Baile an Teampaill", "coordinates": [-8.080909433993357, 51.822189301852475]}, {"name_en": "Bumlin", "co_names": ["Roscommon"], "name_ga": "Buimlinn", "coordinates": [-8.04237075621232, 53.77042343796027]}, {"name_en": "Raymunterdoney", "co_names": ["Donegal"], "name_ga": "Ráith", "coordinates": [-8.047265507060231, 55.11882632396423]}, {"name_en": "Dorrha", "co_names": ["Tipperary"], "name_ga": "Dura", "coordinates": [-8.031956715291578, 53.119606721711726]}, {"name_en": "Devenish", "co_names": ["Fermanagh"], "name_ga": null, "coordinates": [-7.859470462262648, 54.39385340235501]}, {"name_en": "Drum", "co_names": ["Roscommon"], "name_ga": "An Droim", "coordinates": [-8.012412485391122, 53.38192905239247]}, {"name_en": "Kinawley", "co_names": ["Cavan"], "name_ga": "Cill Náile", "coordinates": [-7.743598501988078, 54.18273823332055]}, {"name_en": "St. John's", "co_names": ["Roscommon"], "name_ga": "Teach Eoin", "coordinates": [-8.024386590175732, 53.52909878803344]}, {"name_en": "Tubbrid", "co_names": ["Tipperary"], "name_ga": "Tiobraid", "coordinates": [-7.992540924966254, 52.33090285140767]}, {"name_en": "Clogher", "co_names": ["Tipperary"], "name_ga": "An Clochar", "coordinates": [-7.988552322980224, 52.632687369764646]}, {"name_en": "Kiltoom", "co_names": ["Roscommon"], "name_ga": "Cill Tuama", "coordinates": [-8.018132595289915, 53.46960994777261]}, {"name_en": "St. Peter's", "co_names": ["Roscommon", "Westmeath"], "name_ga": "Paróiste Pheadair", "coordinates": [-7.979104940548373, 53.40482672908147]}, {"name_en": "Moyaliff", "co_names": ["Tipperary"], "name_ga": "Maigh Ailbhe", "coordinates": [-7.976067390663787, 52.66208788629689]}, {"name_en": "Glenkeen", "co_names": ["Tipperary"], "name_ga": "Gleann Caoin", "coordinates": [-7.993882920749406, 52.75284236176244]}, {"name_en": "Killinagh", "co_names": ["Cavan"], "name_ga": "Cill Laighneach", "coordinates": [-7.954312314563644, 54.241914468113244]}, {"name_en": "Ightermurragh", "co_names": ["Cork"], "name_ga": "Íochtar Morú", "coordinates": [-8.01066191570942, 51.90024299294778]}, {"name_en": "Tullaghorton", "co_names": ["Tipperary"], "name_ga": "Tulach Artáin", "coordinates": [-7.9603001161558025, 52.27446706449446]}, {"name_en": "Clonmacnoise", "co_names": ["Offaly"], "name_ga": "Cluain Mhic Nóis", "coordinates": [-7.95079525370678, 53.30614444765011]}, {"name_en": "Seskinan", "co_names": ["Waterford"], "name_ga": "Seisceannán", "coordinates": [-7.670962444047966, 52.22453180691638]}, {"name_en": "Conwal", "co_names": ["Donegal"], "name_ga": "Conbháil", "coordinates": [-7.849558530536852, 54.94588849454323]}, {"name_en": "Loughkeen", "co_names": ["Tipperary"], "name_ga": "Baile Locha Caoin", "coordinates": [-7.9727655606090675, 53.0640624886374]}, {"name_en": "Relickmurry and Athassel", "co_names": ["Tipperary"], "name_ga": "Reilig Mhuire agus Áth Iseal", "coordinates": [-7.983009597890148, 52.47608501810161]}, {"name_en": "Ardagh", "co_names": ["Cork"], "name_ga": "Ardach", "coordinates": [-7.97118747884296, 51.999384279260774]}, {"name_en": "Cleenish and Islands", "co_names": ["Fermanagh"], "name_ga": null, "coordinates": [-7.780752846170814, 54.316036756176615]}, {"name_en": "Reynagh", "co_names": ["Offaly"], "name_ga": "Cill Ríonaí", "coordinates": [-7.944730079970253, 53.17169379579255]}, {"name_en": "Borrisnafarney", "co_names": ["Offaly", "Tipperary"], "name_ga": "Buiríos na Fearna", "coordinates": [-7.947938197194768, 52.848072631562374]}, {"name_en": "Dunkerrin", "co_names": ["Offaly"], "name_ga": "Dún Cairin", "coordinates": [-7.912086534615016, 52.9313146290808]}, {"name_en": "Kilmacdonogh", "co_names": ["Cork"], "name_ga": "Cill Modhomhnóg", "coordinates": [-7.933117641184417, 51.895443208334385]}, {"name_en": "Clonpriest", "co_names": ["Cork"], "name_ga": "Cluain Pruachais", "coordinates": [-7.925944768198272, 51.93874101483219]}, {"name_en": "Kilmurryely", "co_names": ["Offaly"], "name_ga": "Cill Mhuire Éile", "coordinates": [-7.91921702335717, 53.00573279003295]}, {"name_en": "Templecarn", "co_names": ["Fermanagh"], "name_ga": "Teampall Carna", "coordinates": [-7.886010170738722, 54.51114619598874]}, {"name_en": "Templeport", "co_names": ["Cavan"], "name_ga": "Teampall an Phoirt", "coordinates": [-7.774514113104458, 54.140949346529936]}, {"name_en": "Donaghmore", "co_names": ["Donegal"], "name_ga": "Domhnach Mór", "coordinates": [-7.736733098996945, 54.76738979438178]}, {"name_en": "Saint Patricksrock", "co_names": ["Tipperary"], "name_ga": "Carraig Phádraig", "coordinates": [-7.87299260515079, 52.51198808158811]}, {"name_en": "Convoy", "co_names": ["Donegal"], "name_ga": "Conmhaigh", "coordinates": [-7.763964198321047, 54.8684574810143]}, {"name_en": "Holycross", "co_names": ["Tipperary"], "name_ga": "Mainistir na Croiche", "coordinates": [-7.886877978184379, 52.63816619236809]}, {"name_en": "Youghal", "co_names": ["Cork"], "name_ga": "Eochaill", "coordinates": [-7.880523457358657, 51.95432839423249]}, {"name_en": "Bourney", "co_names": ["Tipperary"], "name_ga": "Boirinn", "coordinates": [-7.80076557674859, 52.88493859743738]}, {"name_en": "Roscrea", "co_names": ["Offaly", "Tipperary"], "name_ga": "Ros Cré", "coordinates": [-7.8021966286978, 52.961056572449955]}, {"name_en": "Kilmacrenan", "co_names": ["Donegal"], "name_ga": "Cill Mhic Réanáin", "coordinates": [-7.799573619174051, 55.05701815012177]}, {"name_en": "St. Johnbaptist", "co_names": ["Tipperary"], "name_ga": "Paróiste Eoin Baiste", "coordinates": [-7.85081977674206, 52.50253612647269]}, {"name_en": "Kilkenny West", "co_names": ["Westmeath"], "name_ga": "Cill Chainnigh", "coordinates": [-7.851848615092009, 53.48762756462983]}, {"name_en": "Ballysheehan", "co_names": ["Tipperary"], "name_ga": "Baile Uí Shíocháin", "coordinates": [-7.826881057274552, 52.56437408515971]}, {"name_en": "Templemore", "co_names": ["Tipperary"], "name_ga": "An Teampall Mór", "coordinates": [-7.83533066478266, 52.81716996438541]}, {"name_en": "Drumreilly", "co_names": ["Cavan"], "name_ga": "Droim Oiríolaigh", "coordinates": [-7.845136699186203, 54.12197309048465]}, {"name_en": "Wheery or Killagally", "co_names": ["Offaly"], "name_ga": "Foíre nó Cill Eaglaigh", "coordinates": [-7.780976671276825, 53.262828755324996]}, {"name_en": "Clongesh", "co_names": ["Longford"], "name_ga": "Cluain Geise", "coordinates": [-7.8324548456723475, 53.76850225197838]}, {"name_en": "Thurles", "co_names": ["Tipperary"], "name_ga": "Durlas", "coordinates": [-7.822105819385701, 52.689271263156854]}, {"name_en": "Clashmore", "co_names": ["Waterford"], "name_ga": "Clais Mhór", "coordinates": [-7.820939950652833, 52.00705804881257]}, {"name_en": "Lemanaghan", "co_names": ["Offaly"], "name_ga": "Liath Mancháin", "coordinates": [-7.763623051279295, 53.31779371418631]}, {"name_en": "Killesher", "co_names": ["Fermanagh"], "name_ga": null, "coordinates": [-7.770698192733333, 54.25306141488857]}, {"name_en": "Affane", "co_names": ["Waterford"], "name_ga": "Áth Mheáin", "coordinates": [-7.820316773598053, 52.14298234097351]}, {"name_en": "Kinsalebeg", "co_names": ["Waterford"], "name_ga": "Cionn tSáile", "coordinates": [-7.806976226148115, 51.978777012976046]}, {"name_en": "Drumcullen", "co_names": ["Offaly"], "name_ga": "Droim Cuilinn", "coordinates": [-7.784413115843076, 53.1275797298151]}, {"name_en": "Newcastle", "co_names": ["Tipperary"], "name_ga": "An Caisleán Nua", "coordinates": [-7.803569898272975, 52.24734057106242]}, {"name_en": "Drumkeeran", "co_names": ["Fermanagh"], "name_ga": null, "coordinates": [-7.727859724541624, 54.553831313901604]}, {"name_en": "Noughaval", "co_names": ["Longford"], "name_ga": "Nuachabháil", "coordinates": [-7.765617212901351, 53.54460055335418]}, {"name_en": "Aghancon", "co_names": ["Offaly"], "name_ga": "Achadh Cinn Chon", "coordinates": [-7.782454545957172, 53.01035644634888]}, {"name_en": "Loughmoe East", "co_names": ["Tipperary"], "name_ga": "Na Cealla Beaga", "coordinates": [-7.796917678241912, 52.75361798589886]}, {"name_en": "Mora", "co_names": ["Tipperary"], "name_ga": "Baile na Móna", "coordinates": [-7.790490882331127, 52.442712821921845]}, {"name_en": "Ardmore", "co_names": ["Waterford"], "name_ga": "Aird Mhór", "coordinates": [-7.693425231726391, 52.01702872334314]}, {"name_en": "Newchapel", "co_names": ["Tipperary"], "name_ga": "An Eaglais Nua", "coordinates": [-7.764440180553897, 52.39415672337218]}, {"name_en": "Moydow", "co_names": ["Longford"], "name_ga": "Maigh Dumha", "coordinates": [-7.778577553454557, 53.66016191507658]}, {"name_en": "Ballyboy", "co_names": ["Offaly"], "name_ga": "Baile Átha Buí", "coordinates": [-7.726781324913944, 53.175364718482086]}, {"name_en": "Taghsheenod", "co_names": ["Longford"], "name_ga": "Teach Sionaid", "coordinates": [-7.737352651006961, 53.62283124303598]}, {"name_en": "Magheraculmoney", "co_names": ["Fermanagh"], "name_ga": null, "coordinates": [-7.670153523822467, 54.51648109430944]}, {"name_en": "Kinawley", "co_names": ["Fermanagh"], "name_ga": "Cill Náile", "coordinates": [-7.586666171336785, 54.19640858231396]}, {"name_en": "Lisgenan or Grange", "co_names": ["Waterford"], "name_ga": "Lios Géibheannáin nó An Ghráinsigh", "coordinates": [-7.742512446413545, 51.9847455992603]}, {"name_en": "Kilronan", "co_names": ["Waterford"], "name_ga": "Cill Rónáin", "coordinates": [-7.7316266687479125, 52.2772679173333]}, {"name_en": "Whitechurch", "co_names": ["Waterford"], "name_ga": "An Teampall Geal", "coordinates": [-7.739426372301262, 52.10440629836617]}, {"name_en": "Derryvullan and Islands", "co_names": ["Fermanagh"], "name_ga": null, "coordinates": [-7.641275899513296, 54.413059066384314]}, {"name_en": "Rathcool", "co_names": ["Tipperary"], "name_ga": "Ráth Cuala", "coordinates": [-7.718437183336052, 52.49267986854239]}, {"name_en": "Ardagh", "co_names": ["Longford"], "name_ga": "Ardach", "coordinates": [-7.680993867809995, 53.67674029655144]}, {"name_en": "Taghshinny", "co_names": ["Longford"], "name_ga": "Teach Sinche", "coordinates": [-7.717049652241665, 53.59171559466073]}, {"name_en": "Twomileborris", "co_names": ["Tipperary"], "name_ga": "Buiríos Léith", "coordinates": [-7.70495675489922, 52.659600539694694]}, {"name_en": "Tullyfern", "co_names": ["Donegal"], "name_ga": "Tulaigh Fhearna", "coordinates": [-7.6700661410427315, 55.08155996910438]}, {"name_en": "Forgney", "co_names": ["Longford"], "name_ga": "Forgnaí", "coordinates": [-7.694698180271283, 53.55562242060263]}, {"name_en": "Ballymore", "co_names": ["Westmeath"], "name_ga": "An Baile Mór", "coordinates": [-7.694550853459777, 53.484984334482164]}, {"name_en": "Rossorry", "co_names": ["Fermanagh"], "name_ga": null, "coordinates": [-7.67767667566261, 54.33519668007468]}, {"name_en": "St. Mary's, Clonmel", "co_names": ["Tipperary", "Waterford"], "name_ga": "Paróiste Mhuire", "coordinates": [-7.657986782269477, 52.31411617037227]}, {"name_en": "Killenaule", "co_names": ["Tipperary"], "name_ga": "Cill Náile", "coordinates": [-7.687098241003222, 52.57179724503449]}, {"name_en": "Carrigallen", "co_names": ["Leitrim"], "name_ga": "Carraig Álainn", "coordinates": [-7.64935488142995, 53.990127484182395]}, {"name_en": "Ballymacart", "co_names": ["Waterford"], "name_ga": "Baile Mhac Airt", "coordinates": [-7.641219012286212, 52.003889625611805]}, {"name_en": "Offerlane", "co_names": ["Laois"], "name_ga": "Uí Fhairchealláin", "coordinates": [-7.570450923113447, 53.009796768058095]}, {"name_en": "Trory and Islands", "co_names": ["Fermanagh"], "name_ga": null, "coordinates": [-7.658808221534273, 54.40024744543503]}, {"name_en": "Raphoe", "co_names": ["Donegal"], "name_ga": "Ráth Bhoth", "coordinates": [-7.6197116272562875, 54.874282352220376]}, {"name_en": "Kilcooly", "co_names": ["Tipperary"], "name_ga": "Cill Chúile", "coordinates": [-7.598994344613868, 52.65855311131672]}, {"name_en": "Kilgobnet", "co_names": ["Waterford"], "name_ga": "Cill Ghobnait", "coordinates": [-7.625302890084161, 52.156873263843025]}, {"name_en": "Peppardstown", "co_names": ["Tipperary"], "name_ga": "Baile Bhriodúnach", "coordinates": [-7.647824521001596, 52.49184060203146]}, {"name_en": "Aughnish", "co_names": ["Donegal"], "name_ga": "Eachinis", "coordinates": [-7.618580431064171, 55.04017485042928]}, {"name_en": "Fennor", "co_names": ["Tipperary"], "name_ga": "Fionnúir", "coordinates": [-7.618792146009753, 52.68578997391758]}, {"name_en": "Aghaboe", "co_names": ["Laois"], "name_ga": "Achadh Bhó", "coordinates": [-7.529706241021103, 52.9074828102173]}, {"name_en": "Enniskillen", "co_names": ["Fermanagh"], "name_ga": "Inis Ceithleann", "coordinates": [-7.471187492790415, 54.38287228785004]}, {"name_en": "Buolick", "co_names": ["Tipperary"], "name_ga": "Buailic", "coordinates": [-7.60058359642497, 52.64570780348438]}, {"name_en": "Kilsheelan", "co_names": ["Tipperary"], "name_ga": "Cill Síoláin", "coordinates": [-7.565980375352994, 52.373499374759774]}, {"name_en": "Kildallan", "co_names": ["Cavan"], "name_ga": "Cill Dalláin", "coordinates": [-7.576946217140687, 54.05166018215465]}, {"name_en": "Kilskeery", "co_names": ["Tyrone"], "name_ga": "Cill Scíre", "coordinates": [-7.530629710242131, 54.456269534190525]}, {"name_en": "Dysert", "co_names": ["Waterford"], "name_ga": "An Díseart", "coordinates": [-7.539073429143031, 52.343343569257165]}, {"name_en": "Tomregan", "co_names": ["Fermanagh"], "name_ga": null, "coordinates": [-7.575149380931911, 54.14818420975272]}, {"name_en": "Durrow", "co_names": ["Offaly"], "name_ga": "Darú", "coordinates": [-7.528833324081663, 53.32063051813691]}, {"name_en": "Derrybrusk", "co_names": ["Fermanagh"], "name_ga": null, "coordinates": [-7.554359115630274, 54.3029372773338]}, {"name_en": "Rathaspick", "co_names": ["Westmeath"], "name_ga": "Ráth Easpaig", "coordinates": [-7.539337999841024, 53.6404629843082]}, {"name_en": "Ardnurcher or Horseleap", "co_names": ["Westmeath"], "name_ga": "Baile Átha an Urchair", "coordinates": [-7.558503480302592, 53.39965127332786]}, {"name_en": "Kilrossanty", "co_names": ["Waterford"], "name_ga": "Cill Rosanta", "coordinates": [-7.5468997072349815, 52.181883730404266]}, {"name_en": "Granard", "co_names": ["Longford"], "name_ga": "Gránard", "coordinates": [-7.511059912983708, 53.76716789527946]}, {"name_en": "Abbeylara", "co_names": ["Longford"], "name_ga": "Mainistir Leathrátha", "coordinates": [-7.473256103087088, 53.77600901457706]}, {"name_en": "Clonleigh", "co_names": ["Donegal"], "name_ga": "Cluain Lao", "coordinates": [-7.516825165772547, 54.84520410781771]}, {"name_en": "Allsaints", "co_names": ["Donegal"], "name_ga": null, "coordinates": [-7.484123932860964, 54.992089567730794]}, {"name_en": "Fertagh", "co_names": ["Kilkenny"], "name_ga": "Fearta", "coordinates": [-7.531733932441946, 52.75302786575204]}, {"name_en": "Kilvemnon", "co_names": ["Tipperary"], "name_ga": "Cill Mheanmnáin", "coordinates": [-7.497366190340358, 52.49028883189668]}, {"name_en": "Castletownkindalen", "co_names": ["Westmeath"], "name_ga": "Baile an Chaisleáin", "coordinates": [-7.491857794549101, 53.427403440384715]}, {"name_en": "Aghalurcher", "co_names": ["Fermanagh"], "name_ga": "Achadh Lurchair", "coordinates": [-7.384293837819064, 54.29304517055407]}, {"name_en": "Fews", "co_names": ["Waterford"], "name_ga": "Na Feadha", "coordinates": [-7.4695613487764465, 52.22219379716302]}, {"name_en": "Clomantagh", "co_names": ["Kilkenny"], "name_ga": "An Chloch Mhantach", "coordinates": [-7.493252952746746, 52.725781747791515]}, {"name_en": "Rathangan", "co_names": ["Kildare"], "name_ga": "Ráth Iomgháin", "coordinates": [-6.9974381945359365, 53.22492774542266]}, {"name_en": "Kilbeggan", "co_names": ["Westmeath"], "name_ga": "Cill Bheagáin", "coordinates": [-7.493703896674364, 53.37023651708589]}, {"name_en": "Russagh", "co_names": ["Westmeath"], "name_ga": "An Rosach", "coordinates": [-7.4957633606334975, 53.65455305086424]}, {"name_en": "Street", "co_names": ["Westmeath"], "name_ga": "An tSráid", "coordinates": [-7.454337559589456, 53.68676899531054]}, {"name_en": "Stradbally", "co_names": ["Waterford"], "name_ga": "An tSráidbhaile", "coordinates": [-7.46728239530525, 52.147998458267]}, {"name_en": "Burt", "co_names": ["Donegal"], "name_ga": "An Bheart", "coordinates": [-7.4263790254172815, 55.03708522665128]}, {"name_en": "Drumlumman", "co_names": ["Cavan"], "name_ga": "Droim Lomáin", "coordinates": [-7.433165397980409, 53.839808887420226]}, {"name_en": "Rosenallis", "co_names": ["Laois"], "name_ga": "Ros Fhionnghlaise", "coordinates": [-7.405542503480392, 53.12045567306632]}, {"name_en": "Aghavea", "co_names": ["Fermanagh"], "name_ga": "Achadh Bheithe", "coordinates": [-7.41021052918344, 54.31816657070401]}, {"name_en": "Killahy", "co_names": ["Kilkenny"], "name_ga": "Cill Achaidh", "coordinates": [-7.203960674548449, 52.384629693190625]}, {"name_en": "Longfield East", "co_names": ["Tyrone"], "name_ga": "Leamhchoill Thoir", "coordinates": [-7.451718677381323, 54.60066383016359]}, {"name_en": "Ballintemple", "co_names": ["Cavan"], "name_ga": "Baile an Teampaill", "coordinates": [-7.420654586563481, 53.89927875393909]}, {"name_en": "Camus", "co_names": ["Tyrone"], "name_ga": "Camas", "coordinates": [-7.430541547814155, 54.796555897261875]}, {"name_en": "Leckpatrick", "co_names": ["Tyrone"], "name_ga": "Leic Phádraig", "coordinates": [-7.391704662309931, 54.842726030943226]}, {"name_en": "Abbeyleix", "co_names": ["Laois"], "name_ga": "Mainistir Laoise", "coordinates": [-7.356220902568557, 52.894815376245944]}, {"name_en": "Annagh Civil Parish", "co_names": ["Cavan"], "name_ga": "An tEanach", "coordinates": [-7.353067216951755, 54.09044880230621]}, {"name_en": "Urney", "co_names": ["Cavan"], "name_ga": "An Urnaí", "coordinates": [-7.397257051370975, 54.01892124936069]}, {"name_en": "Callan", "co_names": ["Kilkenny"], "name_ga": "Callainn", "coordinates": [-7.4018848924345155, 52.54745266965779]}, {"name_en": "Donaghedy", "co_names": ["Tyrone"], "name_ga": "Domhnach Caoide", "coordinates": [-7.298052423865873, 54.86430627289172]}, {"name_en": "Tyfarnham", "co_names": ["Westmeath"], "name_ga": "Tigh Farannáin", "coordinates": [-7.337715001791395, 53.59260284479198]}, {"name_en": "Lickbla", "co_names": ["Westmeath"], "name_ga": null, "coordinates": [-7.343539395955121, 53.732339116018245]}, {"name_en": "Ballycallan", "co_names": ["Kilkenny"], "name_ga": "Baile Uí Challáin", "coordinates": [-7.360805211591262, 52.63886743155499]}, {"name_en": "Drummully", "co_names": ["Fermanagh"], "name_ga": "Droim Ailí", "coordinates": [-7.3258652421362145, 54.13940874049491]}, {"name_en": "Castleterra Civil Parish", "co_names": ["Cavan"], "name_ga": null, "coordinates": [-7.324494020779967, 54.03842964673523]}, {"name_en": "Clonca", "co_names": ["Donegal"], "name_ga": "Cluain Catha", "coordinates": [-7.264549887673781, 55.32127978065083]}, {"name_en": "Ballymachugh", "co_names": ["Cavan"], "name_ga": "Baile Mhic Aodha", "coordinates": [-7.335331061947535, 53.829877701368886]}, {"name_en": "Denn", "co_names": ["Cavan"], "name_ga": "Deinn", "coordinates": [-7.285757340751476, 53.9201983922063]}, {"name_en": "Durrow", "co_names": ["Kilkenny"], "name_ga": "Darú", "coordinates": [-7.368972860267987, 52.81982952253387]}, {"name_en": "Jerpoint Church", "co_names": ["Kilkenny"], "name_ga": "Teampall Sheireapúin", "coordinates": [-7.176403045061673, 52.497887657197474]}, {"name_en": "Clogher", "co_names": ["Tyrone"], "name_ga": "Clochar", "coordinates": [-7.208720658932996, 54.41653284144197]}, {"name_en": "Muff", "co_names": ["Donegal"], "name_ga": "Magh", "coordinates": [-7.286455932167761, 55.10015670612722]}, {"name_en": "Fiddown", "co_names": ["Kilkenny"], "name_ga": "Fiodh Dúin", "coordinates": [-7.2977449623450745, 52.36866092896594]}, {"name_en": "Ballyroan", "co_names": ["Laois"], "name_ga": "Baile Átha an Róine", "coordinates": [-7.290053062721541, 52.94569321901987]}, {"name_en": "Borris", "co_names": ["Laois"], "name_ga": "An Bhuiríos", "coordinates": [-7.306854498400267, 53.050990859799384]}, {"name_en": "Clones", "co_names": ["Fermanagh"], "name_ga": "Cluain Eois", "coordinates": [-7.24748554618921, 54.2467285106556]}, {"name_en": "Clonyhurk", "co_names": ["Offaly"], "name_ga": "Cluain Dá Thorc", "coordinates": [-7.233231629629229, 53.16333814734107]}, {"name_en": "Dysartgallen", "co_names": ["Laois"], "name_ga": "Díseart Gailine", "coordinates": [-7.253109086849395, 52.89536108966519]}, {"name_en": "Rathconnell", "co_names": ["Westmeath"], "name_ga": "Rú Chonaill", "coordinates": [-7.230961281029771, 53.5617392690871]}, {"name_en": "Lurgan", "co_names": ["Cavan"], "name_ga": "An Lorgain", "coordinates": [-7.101103300173029, 53.844868559837586]}, {"name_en": "St. Patrick's", "co_names": ["Kilkenny"], "name_ga": "Paróiste Phádraig", "coordinates": [-7.264199450554527, 52.639025698323714]}, {"name_en": "St. Feighin's", "co_names": ["Westmeath"], "name_ga": null, "coordinates": [-7.242463903973816, 53.6801519555398]}, {"name_en": "Kilmacar", "co_names": ["Kilkenny"], "name_ga": "Cill Mocheara", "coordinates": [-7.26275094044361, 52.78670658696995]}, {"name_en": null, "co_names": ["Tyrone"], "name_ga": null, "coordinates": [-7.248466600499407, 54.583936773804446]}, {"name_en": "Lavey", "co_names": ["Cavan"], "name_ga": "Leamhaigh", "coordinates": [-7.223547327528875, 53.94094957356371]}, {"name_en": "Moville Upper", "co_names": ["Donegal"], "name_ga": "Maigh Bhile Uachtarach", "coordinates": [-7.166311115567425, 55.170864683875486]}, {"name_en": "Straboe", "co_names": ["Laois"], "name_ga": "Srath Bó", "coordinates": [-7.259201042929926, 53.0534355393503]}, {"name_en": "Drung Civil Parish", "co_names": ["Cavan"], "name_ga": "Drong", "coordinates": [-7.215984690808449, 54.05081875748195]}, {"name_en": "Clogherny", "co_names": ["Tyrone"], "name_ga": null, "coordinates": [-7.185029416642212, 54.54440970653011]}, {"name_en": "Islandikane", "co_names": ["Waterford"], "name_ga": "Oileán Uí Chéin", "coordinates": [-7.225001230656147, 52.15257576586389]}, {"name_en": "Cumber Lower", "co_names": ["Londonderry"], "name_ga": "An Comar Íochtarach", "coordinates": [-7.191302884408517, 54.95252393711196]}, {"name_en": "Cumber Upper", "co_names": ["Londonderry"], "name_ga": "An Comar Uachtarach", "coordinates": [-7.1524395466663, 54.90649409459108]}, {"name_en": "St. John's", "co_names": ["Kilkenny"], "name_ga": "Paróiste Eoin", "coordinates": [-7.22845726051377, 52.67149283118007]}, {"name_en": "Muckalee", "co_names": ["Kilkenny"], "name_ga": "Maigh Coillí", "coordinates": [-7.242179500637032, 52.382854239075]}, {"name_en": "Fossy or Timahoe", "co_names": ["Laois"], "name_ga": "An Fosadh", "coordinates": [-7.204059264816326, 52.94892555612337]}, {"name_en": "Clones", "co_names": ["Monaghan"], "name_ga": "Cluain Eois", "coordinates": [-7.185603712954316, 54.19649013356216]}, {"name_en": "Faughanvale", "co_names": ["Londonderry"], "name_ga": "An Fhuachonbháil", "coordinates": [-7.139536976203127, 55.0175971292058]}, {"name_en": "Dysartenos", "co_names": ["Laois"], "name_ga": "Díseart Aonghais", "coordinates": [-7.203812037709599, 53.012826845312375]}, {"name_en": "Killeevan", "co_names": ["Monaghan"], "name_ga": "Cill Laobháin", "coordinates": [-7.150082135742311, 54.169167024653596]}, {"name_en": "Culdaff", "co_names": ["Donegal"], "name_ga": "Cúil Dabhcha", "coordinates": [-7.157914330711171, 55.26622875869899]}, {"name_en": "Monasteroris", "co_names": ["Offaly"], "name_ga": "Mainistir Fheorais", "coordinates": [-7.079669094139935, 53.317521753031265]}, {"name_en": "Moville Lower", "co_names": ["Donegal"], "name_ga": "Maigh Bhile Íochtarach", "coordinates": [-7.019279576600014, 55.23047142916742]}, {"name_en": "Derrynahinch", "co_names": ["Kilkenny"], "name_ga": "Doire na hInse", "coordinates": [-7.174761702678458, 52.44174677056075]}, {"name_en": "Termonmaguirk (East Omagh portion)", "co_names": ["Tyrone"], "name_ga": null, "coordinates": [-7.062704429858572, 54.60005431737068]}, {"name_en": "Tedavnet", "co_names": ["Monaghan"], "name_ga": "Tigh Damhnata", "coordinates": [-7.079806684543537, 54.29261952532226]}, {"name_en": "Kilburne", "co_names": ["Waterford"], "name_ga": "Cill Bhairrinn", "coordinates": [-7.168520063498269, 52.221258343432055]}, {"name_en": "Kilmacow", "co_names": ["Kilkenny"], "name_ga": "Cill Mhic Bhúith", "coordinates": [-7.176909963851925, 52.31296408939087]}, {"name_en": "Drumcannon", "co_names": ["Waterford"], "name_ga": "Drom Conáin", "coordinates": [-7.136848150010685, 52.175096727368796]}, {"name_en": "Kilbeacon", "co_names": ["Kilkenny"], "name_ga": "Cill Bhéacáin", "coordinates": [-7.155358236258916, 52.39012322274102]}, {"name_en": "Rossinan", "co_names": ["Kilkenny"], "name_ga": "Ros Séanáin", "coordinates": [-7.1396320637614155, 52.36149427670094]}, {"name_en": "Clonsast", "co_names": ["Offaly"], "name_ga": "Cluain Sosta", "coordinates": [-7.0997718349700465, 53.238539790888574]}, {"name_en": "Dunkitt", "co_names": ["Kilkenny"], "name_ga": "Dún Cit", "coordinates": [-7.127934881067274, 52.31295372649698]}, {"name_en": "Jerpoint West", "co_names": ["Kilkenny"], "name_ga": "Seireapún an Fhásaigh", "coordinates": [-7.12091585563383, 52.44730694954579]}, {"name_en": "Tullaherin", "co_names": ["Kilkenny"], "name_ga": "An Tulaigh Thirim", "coordinates": [-7.138955304507143, 52.58322573873141]}, {"name_en": "Loughcrew", "co_names": ["Meath"], "name_ga": "Loch Craobh", "coordinates": [-7.128946461147225, 53.726260914642104]}, {"name_en": "Lackagh", "co_names": ["Kildare"], "name_ga": "An Leacach", "coordinates": [-7.044384222476049, 53.17307891920663]}, {"name_en": "Errigal Keerogue", "co_names": ["Tyrone"], "name_ga": "Aireagal Dochiaróg", "coordinates": [-7.07688872214518, 54.48713734087331]}, {"name_en": "Moyanna", "co_names": ["Laois"], "name_ga": "Maigh Eanaigh", "coordinates": [-7.111316758312765, 53.05616341520958]}, {"name_en": "Delvin", "co_names": ["Westmeath"], "name_ga": "Dealbhna", "coordinates": [-7.071662050236423, 53.61757952158772]}, {"name_en": "Ematris", "co_names": ["Monaghan"], "name_ga": "Ioma Fhastraí", "coordinates": [-7.051366086141413, 54.12154089618919]}, {"name_en": "Clones", "co_names": ["Monaghan"], "name_ga": "Cluain Eois", "coordinates": [-7.125390937052915, 54.253371695660704]}, {"name_en": "Munterconnaught", "co_names": ["Cavan"], "name_ga": "Muintir Chonnacht", "coordinates": [-7.091595322652612, 53.800193143033205]}, {"name_en": "Errigal Trough", "co_names": ["Monaghan"], "name_ga": "Aireagal", "coordinates": [-7.017911486214387, 54.36904084044441]}, {"name_en": "Killallon", "co_names": ["Meath"], "name_ga": "Coill Fhallúin", "coordinates": [-7.067311518898614, 53.67806882135547]}, {"name_en": "Tiscoffin", "co_names": ["Kilkenny"], "name_ga": "Tigh Scoithín", "coordinates": [-7.119973003792301, 52.690693705715816]}, {"name_en": null, "co_names": ["Laois"], "name_ga": null, "coordinates": [-7.045138375144683, 52.885004281752636]}, {"name_en": "Columbkille", "co_names": ["Kilkenny"], "name_ga": "Cill Cholm Cille", "coordinates": [-7.097614424071096, 52.526135615856354]}, {"name_en": "Inistioge", "co_names": ["Kilkenny"], "name_ga": "Inis Tíog", "coordinates": [-7.074571280034347, 52.484517464184584]}, {"name_en": "Ballynakill", "co_names": ["Waterford"], "name_ga": "Baile Mhic Coiligh", "coordinates": [-7.0759758968005775, 52.243138685251594]}, {"name_en": "Diamor", "co_names": ["Meath"], "name_ga": null, "coordinates": [-7.076379161054536, 53.723646738981955]}, {"name_en": "Listerlin", "co_names": ["Kilkenny"], "name_ga": "Lios ar Glinn", "coordinates": [-7.069948900437258, 52.40276927392188]}, {"name_en": "Errigal Trough", "co_names": ["Tyrone"], "name_ga": "Aireagal", "coordinates": [-7.080444661258376, 54.40396311940199]}, {"name_en": "Old Leighlin", "co_names": ["Carlow"], "name_ga": "Seanleithghlinn", "coordinates": [-7.045269875416928, 52.74034741305338]}, {"name_en": "Drumsnat", "co_names": ["Monaghan"], "name_ga": "Droim Sneachta", "coordinates": [-7.050798654886158, 54.21264610542404]}, {"name_en": "Dysartmoon", "co_names": ["Kilkenny"], "name_ga": "Díseart Muáin", "coordinates": [-7.036155930115634, 52.428488136130866]}, {"name_en": null, "co_names": ["Londonderry"], "name_ga": "Beannchar", "coordinates": [-7.028083221858414, 54.876275032511344]}, {"name_en": "Tullowcreen", "co_names": ["Carlow"], "name_ga": "Tulach Chruinn", "coordinates": [-7.015527114214111, 52.77537617459767]}, {"name_en": "Donagh", "co_names": ["Monaghan"], "name_ga": "Domhnach", "coordinates": [-6.937398833894791, 54.31518869946032]}, {"name_en": "Kilcoan", "co_names": ["Kilkenny"], "name_ga": "Cill Chuáin", "coordinates": [-7.0454717088287575, 52.37411972137806]}, {"name_en": null, "co_names": ["Londonderry"], "name_ga": "Taimleacht-fionn-logain", "coordinates": [-7.005440507738528, 55.04291188584745]}, {"name_en": "Aghanloo", "co_names": ["Londonderry"], "name_ga": "Áth Lú", "coordinates": [-6.9205601532132155, 55.07153304823557]}, {"name_en": "Kilskeer", "co_names": ["Meath"], "name_ga": "Cill Scíre", "coordinates": [-7.006806223339928, 53.72532443442745]}, {"name_en": "Kilmore", "co_names": ["Monaghan"], "name_ga": "An Chill Mhór", "coordinates": [-6.991146368149975, 54.2002536456138]}, {"name_en": null, "co_names": ["Tyrone"], "name_ga": "Carn tSiail", "coordinates": [-6.97469858115231, 54.44852759179448]}, {"name_en": "Clonamery", "co_names": ["Kilkenny"], "name_ga": "Cluain Iomaire", "coordinates": [-7.014784287535912, 52.47899846044033]}, {"name_en": "Powerstown", "co_names": ["Kilkenny"], "name_ga": "Baile an Phaoraigh", "coordinates": [-7.001853655076693, 52.59188793972337]}, {"name_en": "Kill St. Nicholas", "co_names": ["Waterford"], "name_ga": "Cill San Niocláis", "coordinates": [-7.007531593221741, 52.22984947496519]}, {"name_en": "Dungiven", "co_names": ["Londonderry"], "name_ga": "Dún Geimhin", "coordinates": [-6.855448439755524, 54.91534890745132]}, {"name_en": "Aghnamullen", "co_names": ["Monaghan"], "name_ga": "Achadh na Muileann", "coordinates": [-6.904809510210976, 54.073764965572195]}, {"name_en": "Loughan or Castlekeeran", "co_names": ["Cavan", "Meath"], "name_ga": null, "coordinates": [-6.969201648733775, 53.76988732344977]}, {"name_en": "Killeeshil", "co_names": ["Tyrone"], "name_ga": null, "coordinates": [-6.949761556145672, 54.48955027955921]}, {"name_en": "Tankardstown", "co_names": ["Kildare", "Laois"], "name_ga": "Baile an Tancardaigh", "coordinates": [-6.953983685545793, 52.953545092735034]}, {"name_en": null, "co_names": ["Tyrone"], "name_ga": "Leasán", "coordinates": [-6.884172427799554, 54.71153731492012]}, {"name_en": "The Rower", "co_names": ["Kilkenny"], "name_ga": "An Robhar", "coordinates": [-6.963579210302088, 52.4573862151192]}, {"name_en": "Monaghan", "co_names": ["Monaghan"], "name_ga": "Muineachán", "coordinates": [-6.940741815090134, 54.22585177979443]}, {"name_en": "Carrick", "co_names": ["Londonderry"], "name_ga": "An Charraig", "coordinates": [-6.947128678265906, 55.002011043371304]}, {"name_en": "Kildress", "co_names": ["Tyrone"], "name_ga": "Cill Dreas", "coordinates": [-6.8975944970792264, 54.660484611618905]}, {"name_en": "Kildalkey", "co_names": ["Meath"], "name_ga": "Cill Dealga", "coordinates": [-6.918008270871686, 53.5634443585365]}, {"name_en": null, "co_names": ["Londonderry"], "name_ga": "Aird Mhic Giollagáin", "coordinates": [-6.921301209870549, 55.144511582107455]}, {"name_en": "St. James and Dunbrody", "co_names": ["Wexford"], "name_ga": "Paróiste San Séamas & Dún Bróithe", "coordinates": [-6.9269107031109405, 52.24633303017541]}, {"name_en": "Athboy", "co_names": ["Meath"], "name_ga": "Baile Átha Buí", "coordinates": [-6.917970378961356, 53.615850888233325]}, {"name_en": "Magheross", "co_names": ["Monaghan"], "name_ga": "Machaire Rois", "coordinates": [-6.797054813381546, 53.99978634576134]}, {"name_en": "Sliguff", "co_names": ["Carlow"], "name_ga": "Slí Dhubh", "coordinates": [-6.888839973627025, 52.65678933100074]}, {"name_en": "St. Mullin's", "co_names": ["Carlow", "Wexford"], "name_ga": "Tigh Moling", "coordinates": [-6.8803411686473135, 52.51545790246711]}, {"name_en": "Moybolgue", "co_names": ["Cavan"], "name_ga": "Maigh Bolg", "coordinates": [-6.949401188288325, 53.88512706684889]}, {"name_en": "Moynalty", "co_names": ["Meath"], "name_ga": "Maigh nEalta", "coordinates": [-6.903482999175415, 53.81977327470275]}, {"name_en": "Kildare", "co_names": ["Kildare"], "name_ga": "Cill Dara", "coordinates": [-6.890773576660173, 53.158857164569696]}, {"name_en": "Ballynascreen", "co_names": ["Londonderry"], "name_ga": "Baile na Scríne", "coordinates": [-6.843000660496365, 54.78912216234191]}, {"name_en": "Narraghmore", "co_names": ["Kildare"], "name_ga": "An Fhorrach Mhór", "coordinates": [-6.8470702226109745, 53.03094979613491]}, {"name_en": "Oldross", "co_names": ["Wexford"], "name_ga": "Seanros", "coordinates": [-6.869620625283845, 52.38617617740428]}, {"name_en": "Kells", "co_names": ["Meath"], "name_ga": "Ceanannas", "coordinates": [-6.870035805954538, 53.72866047430605]}, {"name_en": null, "co_names": ["Tyrone"], "name_ga": "Díseart Dá Chríoch", "coordinates": [-6.8284251456126315, 54.59924461854562]}, {"name_en": "Drumachose", "co_names": ["Londonderry"], "name_ga": "Droim an Chuais", "coordinates": [-6.872615828501968, 55.05813851839947]}, {"name_en": "Ballybay", "co_names": ["Monaghan"], "name_ga": "Béal Átha Beithe", "coordinates": [-6.872290367505405, 54.117458599253844]}, {"name_en": "Moone", "co_names": ["Kildare"], "name_ga": "Maoin", "coordinates": [-6.87685076021612, 52.99773596454848]}, {"name_en": "Ballyshannon", "co_names": ["Kildare"], "name_ga": "Baile Sonnáin", "coordinates": [-6.851838717818111, 53.09546155993761]}, {"name_en": "Tehallan", "co_names": ["Monaghan"], "name_ga": "Tigh Thaláin", "coordinates": [-6.895113185499438, 54.26435080016558]}, {"name_en": "Hook", "co_names": ["Wexford"], "name_ga": "Rinn Duáin", "coordinates": [-6.913317489395757, 52.14002851114139]}, {"name_en": "Balteagh", "co_names": ["Londonderry"], "name_ga": "Both Dá Fhiach", "coordinates": [-6.856031239419695, 55.00703958880598]}, {"name_en": "Feighcullen", "co_names": ["Kildare"], "name_ga": "Fiodh Cuileann", "coordinates": [-6.883773369698357, 53.22124323128457]}, {"name_en": "Trim", "co_names": ["Meath"], "name_ga": "Baile Átha Troim", "coordinates": [-6.84279026849026, 53.53861462444119]}, {"name_en": "Enniskeen", "co_names": ["Cavan"], "name_ga": "Inis Caoin", "coordinates": [-6.855140236474919, 53.91628223148574]}, {"name_en": "Kiltennell", "co_names": ["Carlow"], "name_ga": "Cill tSinill", "coordinates": [-6.833641776954703, 52.60525140581724]}, {"name_en": "Rathcore", "co_names": ["Meath"], "name_ga": "Ráth Cuair", "coordinates": [-6.827154523449802, 53.43703958968901]}, {"name_en": "Rathmolyon", "co_names": ["Meath"], "name_ga": "Ráth Moliain", "coordinates": [-6.835944779973036, 53.48262711139903]}, {"name_en": "Owenduff", "co_names": ["Wexford"], "name_ga": "An Abhainn Dubh", "coordinates": [-6.854181903094014, 52.313636133625074]}, {"name_en": "Dunfierth", "co_names": ["Kildare"], "name_ga": "Dún Firchirt", "coordinates": [-6.842605879499354, 53.38116301069538]}, {"name_en": "Castledermot", "co_names": ["Kildare"], "name_ga": "Díseart Diarmada", "coordinates": [-6.8473212668637276, 52.908197967222556]}, {"name_en": "Tintern", "co_names": ["Wexford"], "name_ga": "Tinteirn", "coordinates": [-6.832259086233466, 52.25773295479181]}, {"name_en": "Clontibret", "co_names": ["Monaghan"], "name_ga": "Cluain Tiobrad", "coordinates": [-6.8001973323678095, 54.16197364270777]}, {"name_en": "Templeludigan", "co_names": ["Wexford"], "name_ga": "Teampall Lúdagáin", "coordinates": [-6.816808892700609, 52.48004730793352]}, {"name_en": "Dunboe", "co_names": ["Londonderry"], "name_ga": "Dun-mBó", "coordinates": [-6.78950545363432, 55.14242189812089]}, {"name_en": null, "co_names": ["Armagh", "Tyrone"], "name_ga": "Cluain Fiacla", "coordinates": [-6.757254257703238, 54.4490381726542]}, {"name_en": "Davidstown", "co_names": ["Kildare"], "name_ga": "Baile Dháith", "coordinates": [-6.797731803742787, 53.06402348523975]}, {"name_en": "Formoyle", "co_names": ["Londonderry"], "name_ga": "Formhaol", "coordinates": [-6.792681649429183, 55.10885519376369]}, {"name_en": "Enniskeen", "co_names": ["Meath"], "name_ga": "Inis Caoin", "coordinates": [-6.786009725388466, 53.88127981365129]}, {"name_en": "Graney", "co_names": ["Kildare"], "name_ga": "Gráine", "coordinates": [-6.791405334755817, 52.90096469339962]}, {"name_en": "Killann", "co_names": ["Wexford"], "name_ga": "Cill Anna", "coordinates": [-6.768719398235804, 52.525769575745294]}, {"name_en": "Kilbroney", "co_names": ["Down"], "name_ga": "Cill Bhrónaí", "coordinates": [-6.167803897366708, 54.11152947387086]}, {"name_en": null, "co_names": ["Armagh"], "name_ga": "Doire Núis", "coordinates": [-6.751784908310493, 54.26765867255397]}, {"name_en": "Kineagh", "co_names": ["Carlow", "Kildare"], "name_ga": "Cinn Eich", "coordinates": [-6.756139627027573, 52.89224046125063]}, {"name_en": "Aghadowey", "co_names": ["Londonderry"], "name_ga": "Achadh Dubhthaigh", "coordinates": [-6.667617235891472, 55.03224024876442]}, {"name_en": "Cloncurry", "co_names": ["Kildare"], "name_ga": "Cluain Chonaire", "coordinates": [-6.748807766628848, 53.39951095001063]}, {"name_en": null, "co_names": ["Armagh"], "name_ga": null, "coordinates": [-6.761427252017165, 54.38618650479653]}, {"name_en": "Adamstown", "co_names": ["Wexford"], "name_ga": "Maigh Arnaí", "coordinates": [-6.7386337764092605, 52.406599937118514]}, {"name_en": "Clane", "co_names": ["Kildare"], "name_ga": "Claonadh", "coordinates": [-6.708260264012927, 53.29620276382582]}, {"name_en": "Ballynafagh", "co_names": ["Kildare"], "name_ga": "Baile na Faiche", "coordinates": [-6.77637005597001, 53.32385729093118]}, {"name_en": "Ballylannan", "co_names": ["Wexford"], "name_ga": "Baile Uí Leannáin", "coordinates": [-6.756627345829082, 52.28561337993172]}, {"name_en": "Barragh", "co_names": ["Carlow"], "name_ga": "Beirreach", "coordinates": [-6.716323937795671, 52.67573681019179]}, {"name_en": "Kilcronaghan", "co_names": ["Londonderry"], "name_ga": "Cill Chruithneacháin", "coordinates": [-6.717744559566302, 54.79162397982034]}, {"name_en": "Clonmore", "co_names": ["Carlow"], "name_ga": "Cluain Mhór", "coordinates": [-6.5780252367980205, 52.83146524251295]}, {"name_en": "Kilcavan", "co_names": ["Wexford"], "name_ga": "Cill Chaomháin", "coordinates": [-6.715650849535571, 52.261370805077135]}, {"name_en": null, "co_names": ["Armagh"], "name_ga": null, "coordinates": [-6.720400231618421, 54.3613049249897]}, {"name_en": "Desertmartin", "co_names": ["Londonderry"], "name_ga": "Díseart Mhártain", "coordinates": [-6.6856260130715, 54.75785203655244]}, {"name_en": "Donaghenry", "co_names": ["Tyrone"], "name_ga": null, "coordinates": [-6.701987282711169, 54.57896932847151]}, {"name_en": "Horetown", "co_names": ["Wexford"], "name_ga": "Baile an Hóraigh", "coordinates": [-6.721848961786995, 52.331083737452786]}, {"name_en": "Chapel", "co_names": ["Wexford"], "name_ga": "An Séipéal", "coordinates": [-6.707019890032209, 52.44133320136281]}, {"name_en": null, "co_names": ["Londonderry"], "name_ga": "Doire Luaráin", "coordinates": [-6.700711812272043, 54.652934694815734]}, {"name_en": "Baltinglass", "co_names": ["Wicklow"], "name_ga": "Bealach Conglais", "coordinates": [-6.690224797149431, 52.931816846382944]}, {"name_en": "Gallow", "co_names": ["Meath"], "name_ga": "Galamh", "coordinates": [-6.707080862495764, 53.43951799467262]}, {"name_en": null, "co_names": ["Armagh", "Tyrone"], "name_ga": null, "coordinates": [-6.66811652738862, 54.491567465068066]}, {"name_en": "Rathvilly", "co_names": ["Carlow"], "name_ga": "Ráth Bhile", "coordinates": [-6.668154945768299, 52.87158539297904]}, {"name_en": null, "co_names": ["Armagh"], "name_ga": "Lios na Daille", "coordinates": [-6.685208137864459, 54.32216093256583]}, {"name_en": "Clonshanbo", "co_names": ["Kildare"], "name_ga": "Cluain Seanbhó", "coordinates": [-6.712039272689945, 53.35860619886439]}, {"name_en": "Donaghmore", "co_names": ["Meath"], "name_ga": "Domhnach Mór", "coordinates": [-6.680850789377741, 53.67726653004653]}, {"name_en": "Taghmon", "co_names": ["Wexford"], "name_ga": "Teach Munna", "coordinates": [-6.654329041186226, 52.310556403557285]}, {"name_en": "Kilmore", "co_names": ["Wexford"], "name_ga": "An Chill Mhór", "coordinates": [-6.583138654503558, 52.19929488721116]}, {"name_en": null, "co_names": ["Armagh"], "name_ga": "Cluain Fiacla", "coordinates": [-6.689721310231953, 54.40748661959587]}, {"name_en": "Liscolman", "co_names": ["Wicklow"], "name_ga": "Lios Colmáin", "coordinates": [-6.673075437442463, 52.80269500601819]}, {"name_en": "Naas", "co_names": ["Kildare"], "name_ga": "An Nás", "coordinates": [-6.672695791186542, 53.221301573962954]}, {"name_en": "Clonoe", "co_names": ["Tyrone"], "name_ga": "Cluain Eo", "coordinates": [-6.638919591791122, 54.53713591398498]}, {"name_en": "Balraheen", "co_names": ["Kildare"], "name_ga": "Baile an Ráithín", "coordinates": [-6.679067679596987, 53.34885799406812]}, {"name_en": null, "co_names": ["Tyrone"], "name_ga": "Ard Tré", "coordinates": [-6.6729770938790365, 54.62539244075186]}, {"name_en": "Whitechurch", "co_names": ["Kildare"], "name_ga": "An Teampall Geal", "coordinates": [-6.616357240257181, 53.290325856138104]}, {"name_en": null, "co_names": ["Armagh"], "name_ga": "Lios na Daille", "coordinates": [-6.627824183551855, 54.29908034490188]}, {"name_en": "Whitechurchglynn", "co_names": ["Wexford"], "name_ga": "Teampall Geal an Ghleanna", "coordinates": [-6.634023121358188, 52.37205447255303]}, {"name_en": "Termoneeny", "co_names": ["Londonderry"], "name_ga": null, "coordinates": [-6.6361325923624035, 54.81667017999927]}, {"name_en": "Bodenstown", "co_names": ["Kildare"], "name_ga": "Baile Uí Bhuadáin", "coordinates": [-6.658067597908118, 53.275355066881886]}, {"name_en": "Artrea", "co_names": ["Londonderry"], "name_ga": "Ard Tré", "coordinates": [-6.56507224658667, 54.72161731330495]}, {"name_en": "Siddan", "co_names": ["Meath"], "name_ga": "An Sián", "coordinates": [-6.620634050117737, 53.81209004993485]}, {"name_en": "Creggan", "co_names": ["Armagh"], "name_ga": "An Creagán", "coordinates": [-6.5807224061282, 54.08943032241094]},